[
    {
        "capacity": "27",
        "city": "Chicago",
        "lat": "41.88106",
        "lon": "-87.619486",
        "name": "Buckingham Fountain",
        "online time": "6/10/2013 10:43:46",
        "trips": "9849"
    },
    {
        "capacity": "31",
        "city": "Chicago",
        "lat": "41.86722595682",
        "lon": "-87.6153553902",
        "name": "Shedd Aquarium",
        "online time": "6/10/2013 10:44:48",
        "trips": "19663"
    },
    {
        "capacity": "23",
        "city": "Chicago",
        "lat": "41.856268",
        "lon": "-87.613348",
        "name": "Burnham Harbor",
        "online time": "6/10/2013 10:46:02",
        "trips": "16508"
    },
    {
        "capacity": "23",
        "city": "Chicago",
        "lat": "41.874053",
        "lon": "-87.627716",
        "name": "State St & Harrison St",
        "online time": "6/10/2013 10:46:54",
        "trips": "4812"
    },
    {
        "capacity": "39",
        "city": "Chicago",
        "lat": "41.88504199232",
        "lon": "-87.6127945394",
        "name": "Dusable Harbor",
        "online time": "6/10/2013 11:18:52",
        "trips": "14902"
    },
    {
        "capacity": "19",
        "city": "Chicago",
        "lat": "41.88634906269",
        "lon": "-87.6175165471",
        "name": "Field Blvd & South Water St",
        "online time": "6/19/2013 10:00:21",
        "trips": "6182"
    },
    {
        "capacity": "19",
        "city": "Chicago",
        "lat": "41.82879201994",
        "lon": "-87.6806044594",
        "name": "Leavitt St & Archer Ave",
        "online time": "6/21/2013 09:33:32",
        "trips": "466"
    },
    {
        "capacity": "11",
        "city": "Chicago",
        "lat": "41.76663823695",
        "lon": "-87.5764501141",
        "name": "Jeffery Blvd & 71st St",
        "online time": "6/21/2013 09:39:15",
        "trips": "161"
    },
    {
        "capacity": "15",
        "city": "Chicago",
        "lat": "41.7664094567",
        "lon": "-87.5656875719",
        "name": "South Shore Dr & 71st St",
        "online time": "6/21/2013 10:00:22",
        "trips": "548"
    },
    {
        "capacity": "27",
        "city": "Chicago",
        "lat": "41.932418",
        "lon": "-87.652705",
        "name": "Wilton Ave & Diversey Pkwy",
        "online time": "6/22/2013 18:29:48",
        "trips": "7257"
    },
    {
        "capacity": "15",
        "city": "Chicago",
        "lat": "41.858086",
        "lon": "-87.651073",
        "name": "Morgan St & 18th St",
        "online time": "6/22/2013 18:33:34",
        "trips": "2182"
    },
    {
        "capacity": "15",
        "city": "Chicago",
        "lat": "41.858166",
        "lon": "-87.656495",
        "name": "Racine Ave & 18th St",
        "online time": "6/22/2013 18:35:45",
        "trips": "2604"
    },
    {
        "capacity": "15",
        "city": "Chicago",
        "lat": "41.910337",
        "lon": "-87.670072",
        "name": "Paulina Ave & North Ave",
        "online time": "6/22/2013 18:55:29",
        "trips": "4433"
    },
    {
        "capacity": "15",
        "city": "Chicago",
        "lat": "41.90332",
        "lon": "-87.67273",
        "name": "Wood St & Division St",
        "online time": "6/22/2013 18:58:29",
        "trips": "4201"
    },
    {
        "capacity": "19",
        "city": "Chicago",
        "lat": "41.88327159253",
        "lon": "-87.6373132869",
        "name": "Wacker Dr & Washington St",
        "online time": "6/22/2013 19:00:47",
        "trips": "9689"
    },
    {
        "capacity": "16",
        "city": "Chicago",
        "lat": "41.869417",
        "lon": "-87.660996",
        "name": "Loomis St & Taylor St (*)",
        "online time": "6/22/2013 19:03:02",
        "trips": "4357"
    },
    {
        "capacity": "15",
        "city": "Chicago",
        "lat": "41.910522",
        "lon": "-87.653106",
        "name": "Sheffield Ave & Kingsbury St",
        "online time": "6/22/2013 19:04:58",
        "trips": "5746"
    },
    {
        "capacity": "15",
        "city": "Chicago",
        "lat": "41.87772613",
        "lon": "-87.65478743",
        "name": "Aberdeen St & Jackson Blvd",
        "online time": "6/22/2013 19:07:12",
        "trips": "4851"
    },
    {
        "capacity": "15",
        "city": "Chicago",
        "lat": "41.8694821",
        "lon": "-87.6554864",
        "name": "May St & Taylor St",
        "online time": "6/22/2013 19:09:14",
        "trips": "4324"
    },
    {
        "capacity": "16",
        "city": "Chicago",
        "lat": "41.902924",
        "lon": "-87.637715",
        "name": "Orleans St & Elm St (*)",
        "online time": "6/22/2013 20:20:34",
        "trips": "2319"
    },
    {
        "capacity": "15",
        "city": "Chicago",
        "lat": "41.89186",
        "lon": "-87.62062",
        "name": "Fairbanks Ct & Grand Ave",
        "online time": "6/22/2013 20:23:31",
        "trips": "12248"
    },
    {
        "capacity": "23",
        "city": "Chicago",
        "lat": "41.89766",
        "lon": "-87.62351",
        "name": "Michigan Ave & Pearson St",
        "online time": "6/22/2013 20:26:32",
        "trips": "7419"
    },
    {
        "capacity": "31",
        "city": "Chicago",
        "lat": "41.89102",
        "lon": "-87.6173",
        "name": "McClurg Ct & Illinois St",
        "online time": "6/22/2013 20:28:13",
        "trips": "16661"
    },
    {
        "capacity": "19",
        "city": "Chicago",
        "lat": "41.91021",
        "lon": "-87.6435",
        "name": "Larrabee St & North Ave",
        "online time": "6/22/2013 20:31:48",
        "trips": "2686"
    },
    {
        "capacity": "15",
        "city": "Chicago",
        "lat": "41.91468",
        "lon": "-87.64332",
        "name": "Larrabee St & Menomonee St",
        "online time": "6/22/2013 20:38:05",
        "trips": "3573"
    },
    {
        "capacity": "15",
        "city": "Chicago",
        "lat": "41.90068",
        "lon": "-87.6626",
        "name": "Noble St & Milwaukee Ave",
        "online time": "6/22/2013 20:52:28",
        "trips": "4683"
    },
    {
        "capacity": "15",
        "city": "Chicago",
        "lat": "41.899643",
        "lon": "-87.6677",
        "name": "Ashland Ave & Augusta Blvd",
        "online time": "6/22/2013 20:54:40",
        "trips": "3397"
    },
    {
        "capacity": "23",
        "city": "Chicago",
        "lat": "41.896776",
        "lon": "-87.635633",
        "name": "Franklin St & Chicago Ave",
        "online time": "6/22/2013 20:58:44",
        "trips": "7882"
    },
    {
        "capacity": "19",
        "city": "Chicago",
        "lat": "41.87464",
        "lon": "-87.65703",
        "name": "Racine Ave & Congress Pkwy",
        "online time": "6/22/2013 21:00:28",
        "trips": "3148"
    },
    {
        "capacity": "27",
        "city": "Chicago",
        "lat": "41.877181",
        "lon": "-87.627844",
        "name": "State St & Van Buren St",
        "online time": "6/22/2013 21:06:44",
        "trips": "8252"
    },
    {
        "capacity": "15",
        "city": "Chicago",
        "lat": "41.9267559875",
        "lon": "-87.6344287848",
        "name": "Cannon Dr & Fullerton Ave",
        "online time": "6/22/2013 21:09:55",
        "trips": "6247"
    },
    {
        "capacity": "47",
        "city": "Chicago",
        "lat": "41.892278",
        "lon": "-87.612043",
        "name": "Streeter Dr & Grand Ave",
        "online time": "6/22/2013 21:12:15",
        "trips": "65574"
    },
    {
        "capacity": "31",
        "city": "Chicago",
        "lat": "41.8777079559",
        "lon": "-87.6353211408",
        "name": "Franklin St & Jackson Blvd",
        "online time": "6/24/2013 23:34:38",
        "trips": "12687"
    },
    {
        "capacity": "19",
        "city": "Chicago",
        "lat": "41.8793563587",
        "lon": "-87.6297910363",
        "name": "Dearborn St & Adams St",
        "online time": "6/25/2013 01:12:23",
        "trips": "8455"
    },
    {
        "capacity": "27",
        "city": "Chicago",
        "lat": "41.88602082773",
        "lon": "-87.6308760584",
        "name": "Clark St & Lake St",
        "online time": "6/25/2013 01:43:12",
        "trips": "8998"
    },
    {
        "capacity": "23",
        "city": "Chicago",
        "lat": "41.87947235235",
        "lon": "-87.6256886059",
        "name": "Wabash Ave & Adams St",
        "online time": "6/25/2013 01:44:07",
        "trips": "6769"
    },
    {
        "capacity": "15",
        "city": "Chicago",
        "lat": "41.87934437346",
        "lon": "-87.6319852213",
        "name": "LaSalle St & Adams St",
        "online time": "6/25/2013 01:44:12",
        "trips": "8202"
    },
    {
        "capacity": "19",
        "city": "Chicago",
        "lat": "41.87207763285",
        "lon": "-87.6295437729",
        "name": "Federal St & Polk St",
        "online time": "6/25/2013 01:44:18",
        "trips": "7438"
    },
    {
        "capacity": "11",
        "city": "Chicago",
        "lat": "41.852619",
        "lon": "-87.626488",
        "name": "Wabash Ave & Cermak Rd",
        "online time": "6/25/2013 07:38:55",
        "trips": "1757"
    },
    {
        "capacity": "43",
        "city": "Chicago",
        "lat": "41.8838927658",
        "lon": "-87.6246491409",
        "name": "Michigan Ave & Washington St",
        "online time": "6/25/2013 10:57:46",
        "trips": "21295"
    },
    {
        "capacity": "27",
        "city": "Chicago",
        "lat": "41.8847302006",
        "lon": "-87.6277335692",
        "name": "State St & Randolph St",
        "online time": "6/25/2013 10:59:05",
        "trips": "9924"
    },
    {
        "capacity": "15",
        "city": "Chicago",
        "lat": "41.876243",
        "lon": "-87.624426",
        "name": "Michigan Ave & Congress Pkwy",
        "online time": "6/25/2013 11:01:27",
        "trips": "5909"
    },
    {
        "capacity": "19",
        "city": "Chicago",
        "lat": "41.89993001",
        "lon": "-87.63443007",
        "name": "Wells St & Walton St",
        "online time": "6/25/2013 11:03:15",
        "trips": "3982"
    },
    {
        "capacity": "31",
        "city": "Chicago",
        "lat": "41.889187",
        "lon": "-87.627754",
        "name": "State St & Kinzie St",
        "online time": "6/25/2013 11:04:38",
        "trips": "11654"
    },
    {
        "capacity": "39",
        "city": "Chicago",
        "lat": "41.897764",
        "lon": "-87.642884",
        "name": "Larrabee St & Kingsbury St",
        "online time": "6/25/2013 11:20:37",
        "trips": "11812"
    },
    {
        "capacity": "27",
        "city": "Chicago",
        "lat": "41.881319815",
        "lon": "-87.6295209193",
        "name": "Dearborn St & Monroe St",
        "online time": "6/25/2013 11:21:41",
        "trips": "11204"
    },
    {
        "capacity": "27",
        "city": "Chicago",
        "lat": "41.8759326655",
        "lon": "-87.6305845355",
        "name": "Clark St & Congress Pkwy",
        "online time": "6/25/2013 11:23:39",
        "trips": "6549"
    },
    {
        "capacity": "31",
        "city": "Chicago",
        "lat": "41.884576228",
        "lon": "-87.63188991",
        "name": "Clark St & Randolph St",
        "online time": "6/25/2013 11:24:53",
        "trips": "8872"
    },
    {
        "capacity": "31",
        "city": "Chicago",
        "lat": "41.886024",
        "lon": "-87.624117",
        "name": "Michigan Ave & Lake St",
        "online time": "6/25/2013 11:25:55",
        "trips": "13622"
    },
    {
        "capacity": "27",
        "city": "Chicago",
        "lat": "41.894729",
        "lon": "-87.634371",
        "name": "Wells St & Huron St",
        "online time": "6/25/2013 11:27:09",
        "trips": "9396"
    },
    {
        "capacity": "19",
        "city": "Chicago",
        "lat": "41.896362458",
        "lon": "-87.6540612729",
        "name": "Ogden Ave & Chicago Ave",
        "online time": "6/25/2013 11:28:47",
        "trips": "5253"
    },
    {
        "capacity": "23",
        "city": "Chicago",
        "lat": "41.867324",
        "lon": "-87.648625",
        "name": "Halsted St & Roosevelt Rd",
        "online time": "6/25/2013 11:33:51",
        "trips": "2211"
    },
    {
        "capacity": "27",
        "city": "Chicago",
        "lat": "41.888716036",
        "lon": "-87.6444478533",
        "name": "Desplaines St & Kinzie St",
        "online time": "6/25/2013 11:50:53",
        "trips": "10564"
    },
    {
        "capacity": "15",
        "city": "Chicago",
        "lat": "41.8671177825",
        "lon": "-87.6410879593",
        "name": "Clinton St & Roosevelt Rd",
        "online time": "6/25/2013 11:54:47",
        "trips": "4447"
    },
    {
        "capacity": "23",
        "city": "Chicago",
        "lat": "41.916017",
        "lon": "-87.668879",
        "name": "Marshfield Ave & Cortland St",
        "online time": "6/25/2013 11:57:51",
        "trips": "10759"
    },
    {
        "capacity": "23",
        "city": "Chicago",
        "lat": "41.867227",
        "lon": "-87.625961",
        "name": "Wabash Ave & Roosevelt Rd",
        "online time": "6/25/2013 12:06:41",
        "trips": "13551"
    },
    {
        "capacity": "19",
        "city": "Chicago",
        "lat": "41.9105780349",
        "lon": "-87.6494219288",
        "name": "Dayton St & North Ave",
        "online time": "6/25/2013 12:08:04",
        "trips": "6547"
    },
    {
        "capacity": "19",
        "city": "Chicago",
        "lat": "41.907655",
        "lon": "-87.672552",
        "name": "Wood St & Milwaukee Ave",
        "online time": "6/25/2013 12:09:07",
        "trips": "6916"
    },
    {
        "capacity": "27",
        "city": "Chicago",
        "lat": "41.8513751729",
        "lon": "-87.6188346489",
        "name": "McCormick Place",
        "online time": "6/25/2013 12:13:09",
        "trips": "4832"
    },
    {
        "capacity": "23",
        "city": "Chicago",
        "lat": "41.885637",
        "lon": "-87.641823",
        "name": "Clinton St & Lake St",
        "online time": "6/25/2013 12:21:32",
        "trips": "12069"
    },
    {
        "capacity": "19",
        "city": "Chicago",
        "lat": "41.9256018819",
        "lon": "-87.6537080423",
        "name": "Sheffield Ave & Fullerton Ave",
        "online time": "6/25/2013 12:23:48",
        "trips": "9576"
    },
    {
        "capacity": "23",
        "city": "Chicago",
        "lat": "41.875885",
        "lon": "-87.640795",
        "name": "Clinton St & Tilden St",
        "online time": "6/25/2013 12:52:06",
        "trips": "4237"
    },
    {
        "capacity": "19",
        "city": "Chicago",
        "lat": "41.9093960065",
        "lon": "-87.6776919292",
        "name": "Damen Ave & Pierce Ave",
        "online time": "6/25/2013 12:53:32",
        "trips": "11198"
    },
    {
        "capacity": "23",
        "city": "Chicago",
        "lat": "41.8854833079",
        "lon": "-87.6523048564",
        "name": "Morgan St & Lake St",
        "online time": "6/25/2013 12:55:12",
        "trips": "9129"
    },
    {
        "capacity": "31",
        "city": "Chicago",
        "lat": "41.860384",
        "lon": "-87.625813",
        "name": "Wabash Ave & 16th St",
        "online time": "6/25/2013 12:56:47",
        "trips": "5934"
    },
    {
        "capacity": "19",
        "city": "Chicago",
        "lat": "41.880422",
        "lon": "-87.642746",
        "name": "Jefferson St & Monroe St",
        "online time": "6/25/2013 13:08:15",
        "trips": "5397"
    },
    {
        "capacity": "23",
        "city": "Chicago",
        "lat": "41.893882",
        "lon": "-87.641711",
        "name": "Kingsbury St & Erie St",
        "online time": "6/26/2013 12:19:56",
        "trips": "10929"
    },
    {
        "capacity": "31",
        "city": "Chicago",
        "lat": "41.877245",
        "lon": "-87.639366",
        "name": "Canal St & Jackson Blvd",
        "online time": "6/26/2013 15:21:54",
        "trips": "17174"
    },
    {
        "capacity": "39",
        "city": "Chicago",
        "lat": "41.880958",
        "lon": "-87.616743",
        "name": "Lake Shore Dr & Monroe St",
        "online time": "6/26/2013 15:26:11",
        "trips": "36722"
    },
    {
        "capacity": "31",
        "city": "Chicago",
        "lat": "41.882242",
        "lon": "-87.641066",
        "name": "Clinton St & Madison St",
        "online time": "6/26/2013 15:27:12",
        "trips": "25987"
    },
    {
        "capacity": "19",
        "city": "Chicago",
        "lat": "41.881567",
        "lon": "-87.655056",
        "name": "Aberdeen St & Madison (Monroe) St",
        "online time": "6/26/2013 19:00:18",
        "trips": "5743"
    },
    {
        "capacity": "39",
        "city": "Chicago",
        "lat": "41.884241",
        "lon": "-87.629634",
        "name": "Daley Center Plaza",
        "online time": "6/26/2013 19:02:13",
        "trips": "17288"
    },
    {
        "capacity": "19",
        "city": "Chicago",
        "lat": "41.891578",
        "lon": "-87.648384",
        "name": "Milwaukee Ave & Grand Ave",
        "online time": "6/26/2013 19:14:29",
        "trips": "6735"
    },
    {
        "capacity": "23",
        "city": "Chicago",
        "lat": "41.90096039",
        "lon": "-87.62377664",
        "name": "Michigan Ave & Oak St",
        "online time": "6/26/2013 19:18:12",
        "trips": "25880"
    },
    {
        "capacity": "19",
        "city": "Chicago",
        "lat": "41.89637337",
        "lon": "-87.66098386",
        "name": "Eckhart Park",
        "online time": "6/26/2013 19:32:25",
        "trips": "3737"
    },
    {
        "capacity": "19",
        "city": "Chicago",
        "lat": "41.92556258",
        "lon": "-87.65840426",
        "name": "Racine Ave & Fullerton Ave",
        "online time": "6/26/2013 19:36:13",
        "trips": "4613"
    },
    {
        "capacity": "19",
        "city": "Chicago",
        "lat": "41.884069",
        "lon": "-87.656853",
        "name": "Racine Ave & Randolph St",
        "online time": "6/26/2013 19:44:56",
        "trips": "3916"
    },
    {
        "capacity": "31",
        "city": "Chicago",
        "lat": "41.87500913494",
        "lon": "-87.6331058189",
        "name": "Financial Pl & Congress Pkwy",
        "online time": "6/26/2013 19:47:26",
        "trips": "6355"
    },
    {
        "capacity": "35",
        "city": "Chicago",
        "lat": "41.8810317",
        "lon": "-87.62408432",
        "name": "Millennium Park",
        "online time": "6/26/2013 19:51:57",
        "trips": "24938"
    },
    {
        "capacity": "31",
        "city": "Chicago",
        "lat": "41.88338",
        "lon": "-87.64117",
        "name": "Clinton St & Washington Blvd",
        "online time": "6/26/2013 23:39:44",
        "trips": "26960"
    },
    {
        "capacity": "19",
        "city": "Chicago",
        "lat": "41.894556",
        "lon": "-87.653449",
        "name": "Carpenter St & Huron St",
        "online time": "6/27/2013 08:58:55",
        "trips": "3054"
    },
    {
        "capacity": "15",
        "city": "Chicago",
        "lat": "41.913688",
        "lon": "-87.652855",
        "name": "Sheffield Ave & Willow St",
        "online time": "6/27/2013 11:41:25",
        "trips": "5322"
    },
    {
        "capacity": "31",
        "city": "Chicago",
        "lat": "41.918306",
        "lon": "-87.636282",
        "name": "Clark St & Armitage Ave",
        "online time": "6/27/2013 12:33:54",
        "trips": "14514"
    },
    {
        "capacity": "15",
        "city": "Chicago",
        "lat": "41.77870057128",
        "lon": "-87.5867876179",
        "name": "Stony Island Ave & 64th St",
        "online time": "6/27/2013 13:58:11",
        "trips": "107"
    },
    {
        "capacity": "23",
        "city": "Chicago",
        "lat": "41.88461618962",
        "lon": "-87.6445705849",
        "name": "Desplaines St & Randolph St",
        "online time": "6/28/2013 10:47:08",
        "trips": "5469"
    },
    {
        "capacity": "51",
        "city": "Chicago",
        "lat": "41.865312",
        "lon": "-87.617867",
        "name": "Field Museum",
        "online time": "6/30/2013 13:25:23",
        "trips": "7966"
    },
    {
        "capacity": "15",
        "city": "Chicago",
        "lat": "41.882664",
        "lon": "-87.63253",
        "name": "LaSalle St & Washington St",
        "online time": "7/15/2013 14:41:02",
        "trips": "8795"
    },
    {
        "capacity": "19",
        "city": "Chicago",
        "lat": "41.89257",
        "lon": "-87.614492",
        "name": "Lake Shore Dr & Ohio St",
        "online time": "7/15/2013 15:12:09",
        "trips": "10513"
    },
    {
        "capacity": "31",
        "city": "Chicago",
        "lat": "41.888243",
        "lon": "-87.63639",
        "name": "Orleans St & Merchandise Mart Plaza",
        "online time": "7/15/2013 17:26:19",
        "trips": "16074"
    },
    {
        "capacity": "23",
        "city": "Chicago",
        "lat": "41.78101637196",
        "lon": "-87.5761197602",
        "name": "63rd St Beach",
        "online time": "7/16/2013 01:27:50",
        "trips": "816"
    },
    {
        "capacity": "11",
        "city": "Chicago",
        "lat": "41.77345849948",
        "lon": "-87.5853397391",
        "name": "Stony Island Ave & 67th St",
        "online time": "7/16/2013 01:28:00",
        "trips": "130"
    },
    {
        "capacity": "16",
        "city": "Chicago",
        "lat": "41.87146651779",
        "lon": "-87.6409491327",
        "name": "Clinton St & Polk St (*)",
        "online time": "7/18/2013 15:51:56",
        "trips": "1233"
    },
    {
        "capacity": "27",
        "city": "Chicago",
        "lat": "41.897448",
        "lon": "-87.628722",
        "name": "State St & Pearson St",
        "online time": "7/18/2013 15:59:44",
        "trips": "6724"
    },
    {
        "capacity": "23",
        "city": "Chicago",
        "lat": "41.878287",
        "lon": "-87.643909",
        "name": "Desplaines St & Jackson Blvd",
        "online time": "7/18/2013 16:39:18",
        "trips": "4542"
    },
    {
        "capacity": "19",
        "city": "Chicago",
        "lat": "41.87184",
        "lon": "-87.64664",
        "name": "Halsted St & Polk St",
        "online time": "7/18/2013 16:41:10",
        "trips": "4718"
    },
    {
        "capacity": "19",
        "city": "Chicago",
        "lat": "41.874675",
        "lon": "-87.650019",
        "name": "900 W Harrison St",
        "online time": "7/18/2013 16:45:02",
        "trips": "2790"
    },
    {
        "capacity": "23",
        "city": "Chicago",
        "lat": "41.893992",
        "lon": "-87.629318",
        "name": "Dearborn St & Erie St",
        "online time": "7/18/2013 16:46:48",
        "trips": "14163"
    },
    {
        "capacity": "19",
        "city": "Chicago",
        "lat": "41.894666",
        "lon": "-87.638437",
        "name": "Sedgwick St & Huron St",
        "online time": "7/18/2013 16:52:38",
        "trips": "4918"
    },
    {
        "capacity": "15",
        "city": "Chicago ",
        "lat": "41.883668",
        "lon": "-87.64867",
        "name": "Green St & Randolph St",
        "online time": "7/18/2013 17:00:04",
        "trips": "8503"
    },
    {
        "capacity": "15",
        "city": "Chicago ",
        "lat": "41.91844",
        "lon": "-87.65222",
        "name": "Bissell St & Armitage Ave",
        "online time": "7/18/2013 17:09:35",
        "trips": "7961"
    },
    {
        "capacity": "27",
        "city": "Chicago",
        "lat": "41.949399",
        "lon": "-87.654529",
        "name": "Sheffield Ave & Waveland Ave",
        "online time": "7/18/2013 17:17:44",
        "trips": "8892"
    },
    {
        "capacity": "23",
        "city": "Chicago",
        "lat": "41.936266",
        "lon": "-87.652662",
        "name": "Sheffield Ave & Wellington Ave",
        "online time": "7/18/2013 17:18:45",
        "trips": "6837"
    },
    {
        "capacity": "15",
        "city": "Chicago",
        "lat": "41.91552",
        "lon": "-87.687022",
        "name": "Western Ave & Winnebago Ave",
        "online time": "7/18/2013 17:19:17",
        "trips": "4238"
    },
    {
        "capacity": "23",
        "city": "Chicago",
        "lat": "41.94018",
        "lon": "-87.65304",
        "name": "Wilton Ave & Belmont Ave",
        "online time": "7/18/2013 17:20:00",
        "trips": "10822"
    },
    {
        "capacity": "19",
        "city": "Chicago",
        "lat": "41.911386",
        "lon": "-87.638677",
        "name": "Sedgwick St & North Ave",
        "online time": "7/18/2013 17:20:42",
        "trips": "7310"
    },
    {
        "capacity": "19",
        "city": "Chicago",
        "lat": "41.88541",
        "lon": "-87.66732",
        "name": "Ashland Ave & Lake St",
        "online time": "7/18/2013 17:21:18",
        "trips": "2594"
    },
    {
        "capacity": "23",
        "city": "Chicago",
        "lat": "41.853605",
        "lon": "-87.631886",
        "name": "Wentworth Ave & Archer Ave",
        "online time": "7/18/2013 17:21:53",
        "trips": "3574"
    },
    {
        "capacity": "19",
        "city": "Chicago",
        "lat": "41.802562",
        "lon": "-87.590368",
        "name": "Blackstone Ave & Hyde Park Blvd",
        "online time": "7/18/2013 17:22:27",
        "trips": "1185"
    },
    {
        "capacity": "15",
        "city": "Chicago",
        "lat": "41.87501",
        "lon": "-87.67328",
        "name": "Ogden Ave & Congress Pkwy",
        "online time": "7/18/2013 17:23:07",
        "trips": "1271"
    },
    {
        "capacity": "15",
        "city": "Chicago",
        "lat": "41.922695",
        "lon": "-87.697153",
        "name": "California Ave & Milwaukee Ave",
        "online time": "7/18/2013 17:23:40",
        "trips": "5513"
    },
    {
        "capacity": "15",
        "city": "Chicago",
        "lat": "41.855048",
        "lon": "-87.675726",
        "name": "Damen Ave & Cullerton St",
        "online time": "7/18/2013 17:24:21",
        "trips": "1062"
    },
    {
        "capacity": "15",
        "city": "Chicago",
        "lat": "41.890011",
        "lon": "-87.626293",
        "name": "Rush St & Hubbard St",
        "online time": "7/18/2013 17:53:37",
        "trips": "7973"
    },
    {
        "capacity": "15",
        "city": "Chicago ",
        "lat": "41.911974",
        "lon": "-87.631942",
        "name": "Clark St & North Ave",
        "online time": "7/18/2013 17:54:33",
        "trips": "7503"
    },
    {
        "capacity": "15",
        "city": "Chicago ",
        "lat": "41.925905",
        "lon": "-87.64926",
        "name": "Lincoln Ave & Fullerton Ave",
        "online time": "7/18/2013 17:55:24",
        "trips": "5800"
    },
    {
        "capacity": "15",
        "city": "Chicago",
        "lat": "41.895769",
        "lon": "-87.67722",
        "name": "Damen Ave & Chicago Ave",
        "online time": "7/18/2013 17:55:53",
        "trips": "5900"
    },
    {
        "capacity": "15",
        "city": "Chicago ",
        "lat": "41.857556",
        "lon": "-87.661535",
        "name": "Blue Island Ave & 18th St",
        "online time": "7/18/2013 17:56:35",
        "trips": "2993"
    },
    {
        "capacity": "15",
        "city": "Chicago ",
        "lat": "41.90331",
        "lon": "-87.67695",
        "name": "Damen Ave & Division St",
        "online time": "7/18/2013 17:57:12",
        "trips": "6699"
    },
    {
        "capacity": "15",
        "city": "Chicago ",
        "lat": "41.939365",
        "lon": "-87.668385",
        "name": "Lincoln Ave & Belmont Ave",
        "online time": "7/18/2013 17:57:49",
        "trips": "3903"
    },
    {
        "capacity": "15",
        "city": "Chicago ",
        "lat": "41.849237",
        "lon": "-87.631715",
        "name": "Wentworth Ave & 24th St",
        "online time": "7/18/2013 17:58:22",
        "trips": "871"
    },
    {
        "capacity": "27",
        "city": "Chicago",
        "lat": "41.88917683258",
        "lon": "-87.6385057718",
        "name": "Kingsbury St & Kinzie St",
        "online time": "7/18/2013 22:47:21",
        "trips": "19268"
    },
    {
        "capacity": "19",
        "city": "Chicago",
        "lat": "41.877749",
        "lon": "-87.649633",
        "name": "Peoria St & Jackson Blvd",
        "online time": "7/18/2013 22:48:24",
        "trips": "8352"
    },
    {
        "capacity": "11",
        "city": "Chicago",
        "lat": "41.85378",
        "lon": "-87.64665",
        "name": "Halsted St & 21st St",
        "online time": "7/18/2013 22:49:58",
        "trips": "832"
    },
    {
        "capacity": "15",
        "city": "Chicago ",
        "lat": "41.865054",
        "lon": "-87.656959",
        "name": "Racine Ave & 13th St",
        "online time": "7/18/2013 22:52:50",
        "trips": "558"
    },
    {
        "capacity": "15",
        "city": "Chicago ",
        "lat": "41.862378",
        "lon": "-87.651062",
        "name": "Morgan Ave & 14th Pl",
        "online time": "7/18/2013 22:54:11",
        "trips": "2894"
    },
    {
        "capacity": "15",
        "city": "Chicago ",
        "lat": "41.904613",
        "lon": "-87.640552",
        "name": "Clybourn Ave & Division St",
        "online time": "7/18/2013 22:55:07",
        "trips": "3616"
    },
    {
        "capacity": "19",
        "city": "Chicago ",
        "lat": "41.898969",
        "lon": "-87.629912",
        "name": "Dearborn Pkwy & Delaware Pl",
        "online time": "7/18/2013 22:56:47",
        "trips": "10622"
    },
    {
        "capacity": "23",
        "city": "Chicago ",
        "lat": "41.915689",
        "lon": "-87.6346",
        "name": "Clark St & Lincoln Ave",
        "online time": "7/18/2013 22:57:30",
        "trips": "13193"
    },
    {
        "capacity": "31",
        "city": "Chicago ",
        "lat": "41.894503",
        "lon": "-87.617854",
        "name": "McClurg Ct & Erie St",
        "online time": "7/18/2013 22:58:19",
        "trips": "9135"
    },
    {
        "capacity": "15",
        "city": "Chicago ",
        "lat": "41.922167",
        "lon": "-87.638888",
        "name": "Sedgwick St & Webster Ave",
        "online time": "7/19/2013 09:19:42",
        "trips": "6912"
    },
    {
        "capacity": "19",
        "city": "Chicago ",
        "lat": "41.921822",
        "lon": "-87.64414",
        "name": "Larrabee St & Webster Ave",
        "online time": "7/19/2013 09:20:13",
        "trips": "7731"
    },
    {
        "capacity": "19",
        "city": "Chicago",
        "lat": "41.8985866514",
        "lon": "-87.6219152258",
        "name": "Mies van der Rohe Way & Chestnut St",
        "online time": "7/19/2013 09:20:47",
        "trips": "9134"
    },
    {
        "capacity": "11",
        "city": "Chicago ",
        "lat": "41.877945",
        "lon": "-87.662007",
        "name": "Loomis St & Jackson Blvd",
        "online time": "7/19/2013 09:21:36",
        "trips": "2425"
    },
    {
        "capacity": "15",
        "city": "Chicago ",
        "lat": "41.845687",
        "lon": "-87.622481",
        "name": "Indiana Ave & 26th St",
        "online time": "7/19/2013 09:22:07",
        "trips": "1968"
    },
    {
        "capacity": "11",
        "city": "Chicago ",
        "lat": "41.834734",
        "lon": "-87.625813",
        "name": "State St & 33rd St",
        "online time": "7/19/2013 09:22:41",
        "trips": "4462"
    },
    {
        "capacity": "11",
        "city": "Chicago ",
        "lat": "41.8349",
        "lon": "-87.61793",
        "name": "Calumet Ave & 33rd St",
        "online time": "7/19/2013 09:23:13",
        "trips": "2822"
    },
    {
        "capacity": "15",
        "city": "Chicago ",
        "lat": "41.838556",
        "lon": "-87.608218",
        "name": "Fort Dearborn Dr & 31st St",
        "online time": "7/19/2013 09:23:53",
        "trips": "8124"
    },
    {
        "capacity": "15",
        "city": "Chicago ",
        "lat": "41.932225",
        "lon": "-87.658617",
        "name": "Lincoln Ave & Diversey Pkwy",
        "online time": "7/19/2013 09:25:12",
        "trips": "4836"
    },
    {
        "capacity": "19",
        "city": "Chicago ",
        "lat": "41.935733",
        "lon": "-87.663576",
        "name": "Southport Ave & Wellington Ave",
        "online time": "7/19/2013 09:34:14",
        "trips": "6482"
    },
    {
        "capacity": "15",
        "city": "Chicago ",
        "lat": "41.93949",
        "lon": "-87.66378",
        "name": "Southport Ave & Belmont Ave",
        "online time": "7/19/2013 09:34:49",
        "trips": "2804"
    },
    {
        "capacity": "15",
        "city": "Chicago ",
        "lat": "41.9364968219",
        "lon": "-87.6475386582",
        "name": "Clark St & Wellington Ave",
        "online time": "7/19/2013 09:35:56",
        "trips": "6850"
    },
    {
        "capacity": "15",
        "city": "Chicago ",
        "lat": "41.936669",
        "lon": "-87.636794",
        "name": "Lake Shore Dr & Wellington Ave",
        "online time": "7/19/2013 09:36:22",
        "trips": "9385"
    },
    {
        "capacity": "15",
        "city": "Chicago ",
        "lat": "41.912616",
        "lon": "-87.681391",
        "name": "Milwaukee Ave & Wabansia Ave",
        "online time": "7/19/2013 09:40:25",
        "trips": "5191"
    },
    {
        "capacity": "11",
        "city": "Chicago",
        "lat": "41.907781",
        "lon": "-87.685854",
        "name": "Claremont Ave & Hirsch St",
        "online time": "7/19/2013 09:56:47",
        "trips": "1829"
    },
    {
        "capacity": "15",
        "city": "Chicago",
        "lat": "41.910535",
        "lon": "-87.689556",
        "name": "Campbell Ave & North Ave",
        "online time": "7/19/2013 09:57:20",
        "trips": "1828"
    },
    {
        "capacity": "23",
        "city": "Chicago",
        "lat": "41.89576474564",
        "lon": "-87.6259080327",
        "name": "Rush St & Superior St",
        "online time": "7/19/2013 10:00:11",
        "trips": "6995"
    },
    {
        "capacity": "15",
        "city": "Chicago",
        "lat": "41.93588",
        "lon": "-87.67842",
        "name": "Damen Ave & Wellington Ave",
        "online time": "7/19/2013 10:02:00",
        "trips": "2226"
    },
    {
        "capacity": "15",
        "city": "Chicago",
        "lat": "41.931931",
        "lon": "-87.677856",
        "name": "Damen Ave & Clybourn Ave",
        "online time": "7/19/2013 10:02:35",
        "trips": "2064"
    },
    {
        "capacity": "23",
        "city": "Chicago",
        "lat": "41.885837",
        "lon": "-87.6355",
        "name": "Franklin St & Lake St",
        "online time": "7/19/2013 10:03:02",
        "trips": "7177"
    },
    {
        "capacity": "19",
        "city": "Chicago",
        "lat": "41.95078",
        "lon": "-87.659172",
        "name": "Clark St & Grace St",
        "online time": "7/19/2013 10:03:47",
        "trips": "3880"
    },
    {
        "capacity": "15",
        "city": "Chicago ",
        "lat": "41.92883",
        "lon": "-87.668507",
        "name": "Ashland Ave & Wrightwood Ave",
        "online time": "7/19/2013 10:07:29",
        "trips": "2614"
    },
    {
        "capacity": "11",
        "city": "Chicago ",
        "lat": "41.8492",
        "lon": "-87.67564",
        "name": "Damen Ave & Coulter St",
        "online time": "7/19/2013 10:08:02",
        "trips": "232"
    },
    {
        "capacity": "19",
        "city": "Chicago ",
        "lat": "41.864059",
        "lon": "-87.623727",
        "name": "Michigan Ave & 14th St",
        "online time": "7/19/2013 10:08:36",
        "trips": "5220"
    },
    {
        "capacity": "15",
        "city": "Chicago ",
        "lat": "41.874337",
        "lon": "-87.639566",
        "name": "Canal St & Harrison St",
        "online time": "7/19/2013 10:09:06",
        "trips": "2086"
    },
    {
        "capacity": "15",
        "city": "Chicago",
        "lat": "41.85795",
        "lon": "-87.640826",
        "name": "Clinton St & 18th St",
        "online time": "7/19/2013 11:04:04",
        "trips": "1789"
    },
    {
        "capacity": "11",
        "city": "Chicago ",
        "lat": "41.855136",
        "lon": "-87.654127",
        "name": "May St & Cullerton St",
        "online time": "7/19/2013 11:05:15",
        "trips": "1072"
    },
    {
        "capacity": "11",
        "city": "Chicago",
        "lat": "41.90230870122",
        "lon": "-87.627690528",
        "name": "Rush St & Cedar St",
        "online time": "7/19/2013 11:05:50",
        "trips": "7477"
    },
    {
        "capacity": "15",
        "city": "Chicago ",
        "lat": "41.89691",
        "lon": "-87.621743",
        "name": "Mies van der Rohe Way & Chicago Ave",
        "online time": "7/19/2013 11:07:06",
        "trips": "8241"
    },
    {
        "capacity": "27",
        "city": "Chicago ",
        "lat": "41.882091",
        "lon": "-87.639833",
        "name": "Canal St & Madison St",
        "online time": "7/19/2013 11:07:46",
        "trips": "17788"
    },
    {
        "capacity": "19",
        "city": "Chicago ",
        "lat": "41.872596",
        "lon": "-87.633502",
        "name": "Wells St & Polk St",
        "online time": "7/19/2013 11:08:18",
        "trips": "4586"
    },
    {
        "capacity": "27",
        "city": "Chicago ",
        "lat": "41.902973",
        "lon": "-87.63128",
        "name": "Clark St & Elm St",
        "online time": "7/19/2013 11:08:56",
        "trips": "13682"
    },
    {
        "capacity": "23",
        "city": "Chicago ",
        "lat": "41.926277",
        "lon": "-87.630834",
        "name": "Theater on the Lake",
        "online time": "7/19/2013 11:09:45",
        "trips": "30093"
    },
    {
        "capacity": "15",
        "city": "Chicago ",
        "lat": "41.856594",
        "lon": "-87.627542",
        "name": "State St & 19th St",
        "online time": "7/19/2013 11:10:45",
        "trips": "1767"
    },
    {
        "capacity": "15",
        "city": "Chicago",
        "lat": "41.82256",
        "lon": "-87.61615",
        "name": "MLK Jr Dr & Oakwood Blvd",
        "online time": "7/19/2013 11:12:55",
        "trips": "477"
    },
    {
        "capacity": "15",
        "city": "Chicago",
        "lat": "41.906782",
        "lon": "-87.626402",
        "name": "Ritchie Ct & Banks St",
        "online time": "7/19/2013 11:14:24",
        "trips": "4767"
    },
    {
        "capacity": "31",
        "city": "Chicago",
        "lat": "41.890755",
        "lon": "-87.632009",
        "name": "LaSalle St & Illinois St",
        "online time": "7/19/2013 11:15:27",
        "trips": "14642"
    },
    {
        "capacity": "23",
        "city": "Chicago",
        "lat": "41.903222",
        "lon": "-87.634324",
        "name": "Wells St & Elm St",
        "online time": "7/20/2013 12:38:04",
        "trips": "7645"
    },
    {
        "capacity": "23",
        "city": "Chicago",
        "lat": "41.899113",
        "lon": "-87.677212",
        "name": "Damen Ave & Augusta Blvd",
        "online time": "7/20/2013 17:09:09",
        "trips": "4611"
    },
    {
        "capacity": "19",
        "city": "Chicago",
        "lat": "41.83104",
        "lon": "-87.62688",
        "name": "State St & 35th St",
        "online time": "7/21/2013 07:52:49",
        "trips": "2301"
    },
    {
        "capacity": "11",
        "city": "Chicago",
        "lat": "41.917741",
        "lon": "-87.691392",
        "name": "Stave St & Armitage Ave",
        "online time": "7/26/2013 10:32:39",
        "trips": "1334"
    },
    {
        "capacity": "15",
        "city": "Chicago",
        "lat": "41.891795",
        "lon": "-87.658751",
        "name": "Ogden Ave & Race Ave",
        "online time": "7/27/2013 13:03:31",
        "trips": "3589"
    },
    {
        "capacity": "15",
        "city": "Chicago",
        "lat": "41.92533",
        "lon": "-87.6658",
        "name": "Greenview Ave & Fullerton Ave",
        "online time": "7/28/2013 14:35:43",
        "trips": "3464"
    },
    {
        "capacity": "15",
        "city": "Chicago",
        "lat": "41.928773",
        "lon": "-87.663913",
        "name": "Southport Ave & Wrightwood Ave",
        "online time": "8/5/2013 09:36:46",
        "trips": "3855"
    },
    {
        "capacity": "28",
        "city": "Chicago",
        "lat": "41.880884",
        "lon": "-87.639525",
        "name": "Canal St & Monroe St (*)",
        "online time": "8/6/2013 13:14:16",
        "trips": "8272"
    },
    {
        "capacity": "47",
        "city": "Chicago",
        "lat": "41.879255",
        "lon": "-87.639904",
        "name": "Canal St & Adams St",
        "online time": "8/6/2013 13:27:29",
        "trips": "23190"
    },
    {
        "capacity": "15",
        "city": "Chicago",
        "lat": "41.841707",
        "lon": "-87.626938",
        "name": "State St & 29th St",
        "online time": "8/6/2013 14:08:27",
        "trips": "522"
    },
    {
        "capacity": "19",
        "city": "Chicago",
        "lat": "41.886875",
        "lon": "-87.62603",
        "name": "Wabash Ave & Wacker Pl",
        "online time": "8/7/2013 14:01:37",
        "trips": "8262"
    },
    {
        "capacity": "47",
        "city": "Chicago",
        "lat": "41.884728",
        "lon": "-87.619521",
        "name": "Columbus Dr & Randolph St",
        "online time": "8/7/2013 14:11:34",
        "trips": "17612"
    },
    {
        "capacity": "19",
        "city": "Chicago",
        "lat": "41.890573",
        "lon": "-87.622072",
        "name": "Cityfront Plaza Dr & Pioneer Ct",
        "online time": "8/7/2013 16:23:06",
        "trips": "6748"
    },
    {
        "capacity": "19",
        "city": "Chicago",
        "lat": "41.882134",
        "lon": "-87.625125",
        "name": "Michigan Ave & Madison St",
        "online time": "8/8/2013 11:27:29",
        "trips": "6502"
    },
    {
        "capacity": "19",
        "city": "Chicago",
        "lat": "41.881892",
        "lon": "-87.648789",
        "name": "Green St & Madison St",
        "online time": "8/8/2013 11:47:40",
        "trips": "9087"
    },
    {
        "capacity": "15",
        "city": "Chicago",
        "lat": "41.890912",
        "lon": "-87.626804",
        "name": "Wabash Ave & Grand Ave",
        "online time": "8/8/2013 12:26:15",
        "trips": "12242"
    },
    {
        "capacity": "11",
        "city": "Chicago",
        "lat": "41.809851",
        "lon": "-87.616279",
        "name": "MLK Jr Dr & 47th St",
        "online time": "8/10/2013 15:31:56",
        "trips": "393"
    },
    {
        "capacity": "15",
        "city": "Chicago",
        "lat": "41.82168",
        "lon": "-87.6216",
        "name": "Indiana Ave & 40th St",
        "online time": "8/10/2013 15:47:52",
        "trips": "218"
    },
    {
        "capacity": "15",
        "city": "Chicago",
        "lat": "41.857499",
        "lon": "-87.646277",
        "name": "Halsted St & 18th St",
        "online time": "8/12/2013 17:23:13",
        "trips": "1826"
    },
    {
        "capacity": "15",
        "city": "Chicago",
        "lat": "41.85394",
        "lon": "-87.685243",
        "name": "Western Ave & 21st St",
        "online time": "8/13/2013 11:55:27",
        "trips": "957"
    },
    {
        "capacity": "15",
        "city": "Chicago",
        "lat": "41.794853",
        "lon": "-87.618691",
        "name": "Prairie Ave & Garfield Blvd",
        "online time": "8/13/2013 15:14:35",
        "trips": "1001"
    },
    {
        "capacity": "15",
        "city": "Chicago",
        "lat": "41.857901",
        "lon": "-87.668745",
        "name": "Paulina St & 18th St",
        "online time": "8/13/2013 16:01:13",
        "trips": "1846"
    },
    {
        "capacity": "15",
        "city": "Chicago",
        "lat": "41.847203",
        "lon": "-87.646795",
        "name": "Halsted St & Archer Ave",
        "online time": "8/14/2013 08:53:24",
        "trips": "1069"
    },
    {
        "capacity": "15",
        "city": "Chicago",
        "lat": "41.84358",
        "lon": "-87.645368",
        "name": "Emerald Ave & 28th St",
        "online time": "8/14/2013 10:26:13",
        "trips": "691"
    },
    {
        "capacity": "15",
        "city": "Chicago",
        "lat": "41.85381",
        "lon": "-87.665897",
        "name": "Ashland Ave & 21st St",
        "online time": "8/14/2013 13:01:52",
        "trips": "1187"
    },
    {
        "capacity": "11",
        "city": "Chicago",
        "lat": "41.849527",
        "lon": "-87.640591",
        "name": "Normal Ave & Archer Ave",
        "online time": "8/14/2013 13:18:54",
        "trips": "664"
    },
    {
        "capacity": "19",
        "city": "Chicago",
        "lat": "41.90345",
        "lon": "-87.667747",
        "name": "Ashland Ave & Division St",
        "online time": "8/14/2013 16:30:43",
        "trips": "9144"
    },
    {
        "capacity": "19",
        "city": "Chicago",
        "lat": "41.894448",
        "lon": "-87.622663",
        "name": "St. Clair St & Erie St",
        "online time": "8/14/2013 16:32:44",
        "trips": "13499"
    },
    {
        "capacity": "23",
        "city": "Chicago",
        "lat": "41.892154",
        "lon": "-87.636928",
        "name": "Orleans St & Ohio St",
        "online time": "8/14/2013 17:16:56",
        "trips": "6657"
    },
    {
        "capacity": "15",
        "city": "Chicago",
        "lat": "41.910153",
        "lon": "-87.68229",
        "name": "Leavitt St & North Ave",
        "online time": "8/15/2013 11:42:31",
        "trips": "3411"
    },
    {
        "capacity": "23",
        "city": "Chicago",
        "lat": "41.89122",
        "lon": "-87.67686",
        "name": "Damen Ave & Grand Ave",
        "online time": "8/15/2013 11:46:58",
        "trips": "3211"
    },
    {
        "capacity": "15",
        "city": "Chicago",
        "lat": "41.88137",
        "lon": "-87.67493",
        "name": "Damen Ave & Madison St",
        "online time": "8/15/2013 14:08:55",
        "trips": "1334"
    },
    {
        "capacity": "15",
        "city": "Chicago",
        "lat": "41.903029",
        "lon": "-87.697474",
        "name": "California Ave & Division St",
        "online time": "8/15/2013 14:13:09",
        "trips": "1440"
    },
    {
        "capacity": "15",
        "city": "Chicago",
        "lat": "41.886926",
        "lon": "-87.656919",
        "name": "Racine Ave (May St) & Fulton St",
        "online time": "8/15/2013 15:14:03",
        "trips": "4160"
    },
    {
        "capacity": "11",
        "city": "Chicago",
        "lat": "41.856802",
        "lon": "-87.633879",
        "name": "Wells St & 19th St",
        "online time": "8/15/2013 16:21:27",
        "trips": "815"
    },
    {
        "capacity": "19",
        "city": "Chicago",
        "lat": "41.916027",
        "lon": "-87.677411",
        "name": "Damen Ave & Cortland St",
        "online time": "8/16/2013 11:54:27",
        "trips": "5577"
    },
    {
        "capacity": "23",
        "city": "Chicago",
        "lat": "41.93262",
        "lon": "-87.642385",
        "name": "Hampden Ct & Diversey Pkwy",
        "online time": "8/16/2013 11:58:39",
        "trips": "7931"
    },
    {
        "capacity": "19",
        "city": "Chicago",
        "lat": "41.920195",
        "lon": "-87.693033",
        "name": "Milwaukee Ave & Rockwell St",
        "online time": "8/16/2013 15:04:55",
        "trips": "1593"
    },
    {
        "capacity": "15",
        "city": "Chicago",
        "lat": "41.918216",
        "lon": "-87.656936",
        "name": "Clifton Ave & Armitage Ave",
        "online time": "8/16/2013 16:07:03",
        "trips": "4957"
    },
    {
        "capacity": "19",
        "city": "Chicago",
        "lat": "41.913778",
        "lon": "-87.64884",
        "name": "Halsted St & Willow St",
        "online time": "8/16/2013 17:25:17",
        "trips": "3912"
    },
    {
        "capacity": "15",
        "city": "Chicago",
        "lat": "41.919936",
        "lon": "-87.64883",
        "name": "Halsted St & Dickens Ave",
        "online time": "8/19/2013 09:23:46",
        "trips": "4797"
    },
    {
        "capacity": "15",
        "city": "Chicago",
        "lat": "41.939743",
        "lon": "-87.658865",
        "name": "Racine Ave & Belmont Ave",
        "online time": "8/19/2013 09:29:55",
        "trips": "5004"
    },
    {
        "capacity": "15",
        "city": "Chicago",
        "lat": "41.94815",
        "lon": "-87.66394",
        "name": "Southport Ave & Waveland Ave",
        "online time": "8/19/2013 13:15:07",
        "trips": "5540"
    },
    {
        "capacity": "11",
        "city": "Chicago",
        "lat": "41.9406",
        "lon": "-87.6785",
        "name": "Damen Ave & Melrose Ave",
        "online time": "8/19/2013 15:50:47",
        "trips": "1662"
    },
    {
        "capacity": "19",
        "city": "Chicago",
        "lat": "41.943739",
        "lon": "-87.66402",
        "name": "Southport Ave & Roscoe St",
        "online time": "8/19/2013 16:10:33",
        "trips": "6340"
    },
    {
        "capacity": "19",
        "city": "Chicago",
        "lat": "41.94334",
        "lon": "-87.67097",
        "name": "Lincoln Ave & Roscoe St",
        "online time": "8/19/2013 17:20:48",
        "trips": "5063"
    },
    {
        "capacity": "23",
        "city": "Chicago",
        "lat": "41.96167",
        "lon": "-87.65464",
        "name": "Sheridan Rd & Montrose Ave",
        "online time": "8/20/2013 10:12:01",
        "trips": "5062"
    },
    {
        "capacity": "23",
        "city": "Chicago",
        "lat": "41.949275",
        "lon": "-87.646303",
        "name": "Pine Grove Ave & Waveland Ave",
        "online time": "8/20/2013 11:09:28",
        "trips": "6265"
    },
    {
        "capacity": "16",
        "city": "Chicago",
        "lat": "41.883004",
        "lon": "-87.651148",
        "name": "Sangamon St & Washington Blvd (*)",
        "online time": "8/20/2013 11:46:11",
        "trips": "5156"
    },
    {
        "capacity": "19",
        "city": "Chicago",
        "lat": "41.961588",
        "lon": "-87.666036",
        "name": "Clark St & Montrose Ave",
        "online time": "8/20/2013 14:21:05",
        "trips": "2620"
    },
    {
        "capacity": "15",
        "city": "Chicago",
        "lat": "41.905664",
        "lon": "-87.638517",
        "name": "Sedgwick St & Schiller St",
        "online time": "8/20/2013 16:12:39",
        "trips": "1408"
    },
    {
        "capacity": "15",
        "city": "Chicago",
        "lat": "41.842052",
        "lon": "-87.617",
        "name": "MLK Jr Dr & 29th St",
        "online time": "8/20/2013 16:56:22",
        "trips": "6937"
    },
    {
        "capacity": "16",
        "city": "Chicago",
        "lat": "41.961615",
        "lon": "-87.674365",
        "name": "Ravenswood Ave & Montrose Ave (*)",
        "online time": "8/21/2013 09:51:05",
        "trips": "2324"
    },
    {
        "capacity": "19",
        "city": "Chicago",
        "lat": "41.966555",
        "lon": "-87.688487",
        "name": "Western Ave & Leland Ave",
        "online time": "8/21/2013 10:50:20",
        "trips": "3259"
    },
    {
        "capacity": "27",
        "city": "Chicago",
        "lat": "41.954245",
        "lon": "-87.654406",
        "name": "Sheridan Rd & Irving Park Rd",
        "online time": "8/21/2013 11:07:27",
        "trips": "7169"
    },
    {
        "capacity": "15",
        "city": "Chicago ",
        "lat": "41.871737",
        "lon": "-87.65103",
        "name": "Morgan St & Polk St",
        "online time": "8/21/2013 11:57:13",
        "trips": "6532"
    },
    {
        "capacity": "15",
        "city": "Chicago ",
        "lat": "41.967094",
        "lon": "-87.679028",
        "name": "Damen Ave & Leland Ave",
        "online time": "8/21/2013 16:08:29",
        "trips": "2642"
    },
    {
        "capacity": "15",
        "city": "Chicago ",
        "lat": "41.962391",
        "lon": "-87.684146",
        "name": "Lincoln Ave & Leavitt St",
        "online time": "8/21/2013 16:45:53",
        "trips": "2854"
    },
    {
        "capacity": "19",
        "city": "Chicago",
        "lat": "41.95469",
        "lon": "-87.67393",
        "name": "Ravenswood Ave & Irving Park Rd",
        "online time": "8/22/2013 09:49:19",
        "trips": "2989"
    },
    {
        "capacity": "23",
        "city": "Chicago",
        "lat": "41.961004",
        "lon": "-87.649603",
        "name": "Clarendon Ave & Junior Ter",
        "online time": "8/22/2013 11:01:23",
        "trips": "3396"
    },
    {
        "capacity": "11",
        "city": "Chicago",
        "lat": "41.956061",
        "lon": "-87.668869",
        "name": "Ashland Ave & Belle Plaine Ave",
        "online time": "8/22/2013 12:47:32",
        "trips": "1883"
    },
    {
        "capacity": "19",
        "city": "Chicago",
        "lat": "41.795212",
        "lon": "-87.580715",
        "name": "Shore Dr & 55th St",
        "online time": "8/22/2013 12:50:56",
        "trips": "4414"
    },
    {
        "capacity": "19",
        "city": "Chicago",
        "lat": "41.795264",
        "lon": "-87.596471",
        "name": "Woodlawn Ave & 55th St",
        "online time": "8/22/2013 14:31:48",
        "trips": "1536"
    },
    {
        "capacity": "31",
        "city": "Chicago",
        "lat": "41.963982",
        "lon": "-87.638181",
        "name": "Montrose Harbor",
        "online time": "8/22/2013 17:09:47",
        "trips": "11283"
    },
    {
        "capacity": "19",
        "city": "Chicago",
        "lat": "41.936083",
        "lon": "-87.669807",
        "name": "Ashland Ave & Wellington Ave",
        "online time": "8/23/2013 09:09:59",
        "trips": "2121"
    },
    {
        "capacity": "15",
        "city": "Chicago",
        "lat": "41.967968",
        "lon": "-87.650001",
        "name": "Clarendon Ave & Leland Ave",
        "online time": "8/26/2013 11:52:52",
        "trips": "2418"
    },
    {
        "capacity": "15",
        "city": "Chicago",
        "lat": "41.809835",
        "lon": "-87.599383",
        "name": "Greenwood Ave & 47th St",
        "online time": "8/26/2013 14:33:32",
        "trips": "635"
    },
    {
        "capacity": "15",
        "city": "Chicago",
        "lat": "41.968873",
        "lon": "-87.658857",
        "name": "Clifton Ave & Lawrence Ave",
        "online time": "8/31/2013 08:58:02",
        "trips": "2843"
    },
    {
        "capacity": "15",
        "city": "Chicago",
        "lat": "41.954383",
        "lon": "-87.648043",
        "name": "Pine Grove Ave & Irving Park Rd",
        "online time": "8/31/2013 09:03:15",
        "trips": "7152"
    },
    {
        "capacity": "39",
        "city": "Chicago",
        "lat": "41.867888",
        "lon": "-87.623041",
        "name": "Indiana Ave & Roosevelt Rd",
        "online time": "8/31/2013 10:38:40",
        "trips": "15646"
    },
    {
        "capacity": "15",
        "city": "Chicago",
        "lat": "41.952833",
        "lon": "-87.649993",
        "name": "Broadway & Sheridan Rd",
        "online time": "8/31/2013 11:54:12",
        "trips": "3602"
    },
    {
        "capacity": "15",
        "city": "Chicago",
        "lat": "41.94911",
        "lon": "-87.675112",
        "name": "Lincoln Ave & Waveland Ave",
        "online time": "8/31/2013 12:17:05",
        "trips": "2494"
    },
    {
        "capacity": "19",
        "city": "Chicago",
        "lat": "41.930584",
        "lon": "-87.685126",
        "name": "Logan Blvd & Elston Ave",
        "online time": "8/31/2013 14:15:22",
        "trips": "3082"
    },
    {
        "capacity": "15",
        "city": "Chicago",
        "lat": "41.918121",
        "lon": "-87.696972",
        "name": "California Ave & Francis Pl",
        "online time": "9/3/2013 09:39:15",
        "trips": "1952"
    },
    {
        "capacity": "27",
        "city": "Chicago",
        "lat": "41.929567",
        "lon": "-87.707857",
        "name": "Kedzie Ave & Milwaukee Ave",
        "online time": "9/3/2013 12:41:21",
        "trips": "5499"
    },
    {
        "capacity": "15",
        "city": "Chicago",
        "lat": "41.871514",
        "lon": "-87.669886",
        "name": "Hermitage Ave & Polk St",
        "online time": "9/3/2013 13:15:56",
        "trips": "3089"
    },
    {
        "capacity": "11",
        "city": "Chicago",
        "lat": "41.827059",
        "lon": "-87.64572",
        "name": "Halsted St & 37th St",
        "online time": "9/3/2013 13:18:23",
        "trips": "327"
    },
    {
        "capacity": "11",
        "city": "Chicago",
        "lat": "41.836208",
        "lon": "-87.613533",
        "name": "Rhodes Ave & 32nd St",
        "online time": "9/3/2013 13:47:37",
        "trips": "2118"
    },
    {
        "capacity": "19",
        "city": "Chicago",
        "lat": "41.886835",
        "lon": "-87.62232",
        "name": "Stetson Ave & South Water St",
        "online time": "9/3/2013 15:12:30",
        "trips": "7789"
    },
    {
        "capacity": "15",
        "city": "Chicago",
        "lat": "41.822985",
        "lon": "-87.6071",
        "name": "Cottage Grove Ave & Oakwood Blvd",
        "online time": "9/3/2013 17:01:28",
        "trips": "1055"
    },
    {
        "capacity": "15",
        "city": "Chicago",
        "lat": "41.809443",
        "lon": "-87.591875",
        "name": "Lake Park Ave & 47th St",
        "online time": "9/4/2013 15:57:31",
        "trips": "2022"
    },
    {
        "capacity": "39",
        "city": "Chicago",
        "lat": "41.911722",
        "lon": "-87.626804",
        "name": "Lake Shore Dr & North Blvd",
        "online time": "9/5/2013 09:48:05",
        "trips": "33600"
    },
    {
        "capacity": "15",
        "city": "Chicago",
        "lat": "41.7586696704",
        "lon": "-87.586882871",
        "name": "Stony Island Ave & 75th St",
        "online time": "9/5/2013 14:16:18",
        "trips": "85"
    },
    {
        "capacity": "11",
        "city": "Chicago",
        "lat": "41.816499",
        "lon": "-87.606582",
        "name": "Cottage Grove Ave & 43rd St",
        "online time": "9/9/2013 16:33:46",
        "trips": "409"
    },
    {
        "capacity": "11",
        "city": "Chicago",
        "lat": "41.838842",
        "lon": "-87.621857",
        "name": "Indiana Ave & 31st St",
        "online time": "9/9/2013 16:51:27",
        "trips": "2739"
    },
    {
        "capacity": "23",
        "city": "Chicago",
        "lat": "41.857813",
        "lon": "-87.62455",
        "name": "Michigan Ave & 18th St",
        "online time": "9/10/2013 09:13:27",
        "trips": "5671"
    },
    {
        "capacity": "15",
        "city": "Chicago",
        "lat": "41.861267",
        "lon": "-87.656625",
        "name": "Racine Ave & 15th St",
        "online time": "9/10/2013 10:45:55",
        "trips": "1296"
    },
    {
        "capacity": "15",
        "city": "Chicago",
        "lat": "41.865234",
        "lon": "-87.666507",
        "name": "Ashland Ave & 13th St",
        "online time": "9/10/2013 12:20:45",
        "trips": "1061"
    },
    {
        "capacity": "11",
        "city": "Chicago",
        "lat": "41.91044",
        "lon": "-87.6972",
        "name": "California Ave & North Ave",
        "online time": "9/10/2013 14:24:37",
        "trips": "1892"
    },
    {
        "capacity": "15",
        "city": "Chicago",
        "lat": "41.891072",
        "lon": "-87.666611",
        "name": "Ashland Ave & Grand Ave",
        "online time": "9/10/2013 14:57:08",
        "trips": "2745"
    },
    {
        "capacity": "15",
        "city": "Chicago",
        "lat": "41.830629",
        "lon": "-87.64129",
        "name": "Wallace St & 35th St",
        "online time": "9/10/2013 15:57:33",
        "trips": "719"
    },
    {
        "capacity": "16",
        "city": "Chicago",
        "lat": "41.830661",
        "lon": "-87.647172",
        "name": "Halsted St & 35th St (*)",
        "online time": "9/11/2013 09:17:44",
        "trips": "1313"
    },
    {
        "capacity": "11",
        "city": "Chicago",
        "lat": "41.8378",
        "lon": "-87.65114",
        "name": "Morgan St & 31st St",
        "online time": "9/11/2013 11:50:00",
        "trips": "924"
    },
    {
        "capacity": "11",
        "city": "Chicago",
        "lat": "41.84847",
        "lon": "-87.685109",
        "name": "Western Ave & 24th St",
        "online time": "9/11/2013 12:09:03",
        "trips": "282"
    },
    {
        "capacity": "15",
        "city": "Chicago",
        "lat": "41.864883",
        "lon": "-87.647071",
        "name": "Halsted St & Maxwell St",
        "online time": "9/11/2013 14:02:23",
        "trips": "4120"
    },
    {
        "capacity": "31",
        "city": "Chicago",
        "lat": "41.87817",
        "lon": "-87.631985",
        "name": "LaSalle St & Jackson Blvd",
        "online time": "9/11/2013 15:53:40",
        "trips": "11364"
    },
    {
        "capacity": "23",
        "city": "Chicago",
        "lat": "41.87785",
        "lon": "-87.62408",
        "name": "Michigan Ave & Jackson Blvd",
        "online time": "9/12/2013 09:21:22",
        "trips": "11850"
    },
    {
        "capacity": "19",
        "city": "Chicago",
        "lat": "41.889587",
        "lon": "-87.671956",
        "name": "Wood St & Hubbard St",
        "online time": "9/12/2013 10:22:36",
        "trips": "2322"
    },
    {
        "capacity": "23",
        "city": "Chicago",
        "lat": "41.878724",
        "lon": "-87.634793",
        "name": "Franklin St & Quincy St",
        "online time": "9/12/2013 12:08:05",
        "trips": "7438"
    },
    {
        "capacity": "27",
        "city": "Chicago",
        "lat": "41.880317",
        "lon": "-87.635185",
        "name": "Franklin St & Monroe St",
        "online time": "9/12/2013 14:19:49",
        "trips": "17494"
    },
    {
        "capacity": "11",
        "city": "Chicago",
        "lat": "41.918084",
        "lon": "-87.643749",
        "name": "Larrabee St & Armitage Ave",
        "online time": "9/12/2013 15:23:17",
        "trips": "4008"
    },
    {
        "capacity": "19",
        "city": "Chicago",
        "lat": "41.912133",
        "lon": "-87.634656",
        "name": "Wells St & Concord Ln",
        "online time": "9/13/2013 09:46:47",
        "trips": "13256"
    },
    {
        "capacity": "15",
        "city": "Chicago",
        "lat": "41.921525",
        "lon": "-87.707322",
        "name": "Kedzie Ave & Palmer Ct",
        "online time": "9/13/2013 10:50:18",
        "trips": "2313"
    },
    {
        "capacity": "19",
        "city": "Chicago",
        "lat": "41.906724",
        "lon": "-87.63483",
        "name": "Wells St & Evergreen Ave",
        "online time": "9/13/2013 12:11:25",
        "trips": "7942"
    },
    {
        "capacity": "11",
        "city": "Chicago",
        "lat": "41.957081",
        "lon": "-87.664199",
        "name": "Southport Ave & Clark St",
        "online time": "9/13/2013 14:55:22",
        "trips": "1683"
    },
    {
        "capacity": "19",
        "city": "Chicago",
        "lat": "41.965485",
        "lon": "-87.657238",
        "name": "Broadway & Wilson Ave",
        "online time": "9/17/2013 14:59:37",
        "trips": "2650"
    },
    {
        "capacity": "15",
        "city": "Chicago",
        "lat": "41.978353",
        "lon": "-87.659753",
        "name": "Broadway & Berwyn Ave",
        "online time": "9/17/2013 15:42:58",
        "trips": "3623"
    },
    {
        "capacity": "15",
        "city": "Chicago",
        "lat": "41.973815",
        "lon": "-87.65966",
        "name": "Broadway & Argyle St",
        "online time": "9/17/2013 17:38:47",
        "trips": "2217"
    },
    {
        "capacity": "15",
        "city": "Chicago",
        "lat": "41.940106",
        "lon": "-87.645451",
        "name": "Broadway & Belmont Ave",
        "online time": "9/17/2013 17:48:58",
        "trips": "6289"
    },
    {
        "capacity": "15",
        "city": "Chicago",
        "lat": "41.961507",
        "lon": "-87.671387",
        "name": "Paulina St & Montrose Ave",
        "online time": "9/18/2013 11:00:26",
        "trips": "1279"
    },
    {
        "capacity": "15",
        "city": "Chicago",
        "lat": "41.955927",
        "lon": "-87.679259",
        "name": "Lincoln Ave & Belle Plaine Ave",
        "online time": "9/18/2013 11:51:16",
        "trips": "2762"
    },
    {
        "capacity": "15",
        "city": "Chicago",
        "lat": "41.94367",
        "lon": "-87.64895",
        "name": "Halsted St & Roscoe St",
        "online time": "9/18/2013 14:50:25",
        "trips": "6631"
    },
    {
        "capacity": "19",
        "city": "Chicago",
        "lat": "41.937725",
        "lon": "-87.644095",
        "name": "Broadway & Barry Ave",
        "online time": "9/18/2013 15:13:12",
        "trips": "9840"
    },
    {
        "capacity": "19",
        "city": "Chicago",
        "lat": "41.907993",
        "lon": "-87.631501",
        "name": "Clark St & Schiller St",
        "online time": "9/18/2013 16:18:56",
        "trips": "7550"
    },
    {
        "capacity": "19",
        "city": "Chicago",
        "lat": "41.928712",
        "lon": "-87.653833",
        "name": "Sheffield Ave & Wrightwood Ave",
        "online time": "9/18/2013 16:55:36",
        "trips": "4588"
    },
    {
        "capacity": "23",
        "city": "Chicago",
        "lat": "41.945529",
        "lon": "-87.646439",
        "name": "Broadway & Cornelia Ave",
        "online time": "9/19/2013 09:39:45",
        "trips": "6195"
    },
    {
        "capacity": "15",
        "city": "Chicago",
        "lat": "41.949065",
        "lon": "-87.648601",
        "name": "Broadway & Waveland Ave",
        "online time": "9/19/2013 12:10:46",
        "trips": "4664"
    },
    {
        "capacity": "15",
        "city": "Chicago",
        "lat": "41.902893",
        "lon": "-87.687275",
        "name": "Western Ave & Division St",
        "online time": "9/19/2013 12:55:44",
        "trips": "3039"
    },
    {
        "capacity": "15",
        "city": "Chicago",
        "lat": "41.958494",
        "lon": "-87.654966",
        "name": "Sheridan Rd & Buena Ave",
        "online time": "9/19/2013 15:36:55",
        "trips": "3260"
    },
    {
        "capacity": "15",
        "city": "Chicago",
        "lat": "41.920771",
        "lon": "-87.663712",
        "name": "Southport Ave & Clybourn Ave",
        "online time": "9/19/2013 16:30:42",
        "trips": "3799"
    },
    {
        "capacity": "11",
        "city": "Chicago",
        "lat": "41.943403",
        "lon": "-87.679618",
        "name": "Seeley Ave & Roscoe St",
        "online time": "9/19/2013 16:55:13",
        "trips": "2233"
    },
    {
        "capacity": "11",
        "city": "Chicago",
        "lat": "41.917805",
        "lon": "-87.682437",
        "name": "Leavitt St & Armitage Ave",
        "online time": "9/19/2013 17:19:44",
        "trips": "2413"
    },
    {
        "capacity": "11",
        "city": "Chicago",
        "lat": "41.920082",
        "lon": "-87.677855",
        "name": "Damen Ave & Charleston St",
        "online time": "9/19/2013 17:59:20",
        "trips": "2410"
    },
    {
        "capacity": "19",
        "city": "Chicago",
        "lat": "41.968885",
        "lon": "-87.684001",
        "name": "Leavitt St & Lawrence Ave",
        "online time": "9/20/2013 09:23:45",
        "trips": "1846"
    },
    {
        "capacity": "15",
        "city": "Chicago",
        "lat": "41.957879",
        "lon": "-87.649519",
        "name": "Clarendon Ave & Gordon Ter",
        "online time": "9/20/2013 09:45:27",
        "trips": "4514"
    },
    {
        "capacity": "19",
        "city": "Chicago",
        "lat": "41.925858",
        "lon": "-87.638973",
        "name": "Lakeview Ave & Fullerton Pkwy",
        "online time": "9/20/2013 10:42:10",
        "trips": "9570"
    },
    {
        "capacity": "15",
        "city": "Chicago",
        "lat": "41.957921",
        "lon": "-87.673567",
        "name": "Ravenswood Ave & Berteau Ave",
        "online time": "9/20/2013 11:56:03",
        "trips": "2404"
    },
    {
        "capacity": "23",
        "city": "Chicago",
        "lat": "41.912919",
        "lon": "-87.664169",
        "name": "Elston Ave & Wabansia Ave",
        "online time": "9/20/2013 12:38:56",
        "trips": "2221"
    },
    {
        "capacity": "19",
        "city": "Chicago",
        "lat": "41.96325",
        "lon": "-87.679258",
        "name": "Damen Ave & Sunnyside Ave",
        "online time": "9/20/2013 14:22:52",
        "trips": "1648"
    },
    {
        "capacity": "23",
        "city": "Chicago",
        "lat": "41.869154",
        "lon": "-87.671045",
        "name": "Wood St & Taylor St",
        "online time": "9/20/2013 14:44:29",
        "trips": "3645"
    },
    {
        "capacity": "15",
        "city": "Chicago",
        "lat": "41.954177",
        "lon": "-87.664358",
        "name": "Southport Ave & Irving Park Rd",
        "online time": "9/20/2013 14:56:02",
        "trips": "3246"
    },
    {
        "capacity": "15",
        "city": "Chicago",
        "lat": "41.932595",
        "lon": "-87.665939",
        "name": "Greenview Ave & Diversey Pkwy",
        "online time": "9/20/2013 15:20:20",
        "trips": "2329"
    },
    {
        "capacity": "19",
        "city": "Chicago",
        "lat": "41.872187",
        "lon": "-87.661501",
        "name": "Loomis St & Lexington St",
        "online time": "9/20/2013 16:26:22",
        "trips": "5727"
    },
    {
        "capacity": "19",
        "city": "Chicago",
        "lat": "41.871962",
        "lon": "-87.626106",
        "name": "Wabash Ave & 8th St",
        "online time": "9/20/2013 16:37:53",
        "trips": "6274"
    },
    {
        "capacity": "19",
        "city": "Chicago",
        "lat": "41.799568",
        "lon": "-87.594747",
        "name": "Kimbark Ave & 53rd St",
        "online time": "9/20/2013 16:51:39",
        "trips": "3461"
    },
    {
        "capacity": "15",
        "city": "Chicago",
        "lat": "41.969517",
        "lon": "-87.654691",
        "name": "Sheridan Rd & Lawrence Ave",
        "online time": "9/21/2013 11:30:42",
        "trips": "1868"
    },
    {
        "capacity": "15",
        "city": "Chicago",
        "lat": "41.93132",
        "lon": "-87.638742",
        "name": "Stockton Dr & Wrightwood Ave",
        "online time": "9/21/2013 11:55:45",
        "trips": "5703"
    },
    {
        "capacity": "19",
        "city": "Chicago",
        "lat": "41.973385",
        "lon": "-87.668365",
        "name": "Clark St & Winnemac Ave",
        "online time": "9/23/2013 09:59:55",
        "trips": "4095"
    },
    {
        "capacity": "11",
        "city": "Chicago",
        "lat": "41.967096",
        "lon": "-87.667429",
        "name": "Clark St & Leland Ave",
        "online time": "9/23/2013 15:02:29",
        "trips": "2531"
    },
    {
        "capacity": "19",
        "city": "Chicago",
        "lat": "41.92154",
        "lon": "-87.653818",
        "name": "Sheffield Ave & Webster Ave",
        "online time": "9/23/2013 15:05:38",
        "trips": "6790"
    },
    {
        "capacity": "19",
        "city": "Chicago",
        "lat": "41.788746",
        "lon": "-87.601334",
        "name": "Ellis Ave & 58th St",
        "online time": "9/25/2013 09:38:39",
        "trips": "2550"
    },
    {
        "capacity": "15",
        "city": "Chicago",
        "lat": "41.932684",
        "lon": "-87.63625",
        "name": "Lake Shore Dr & Diversey Pkwy",
        "online time": "9/25/2013 09:49:00",
        "trips": "7983"
    },
    {
        "capacity": "19",
        "city": "Chicago",
        "lat": "41.946176",
        "lon": "-87.673308",
        "name": "Lincoln Ave & Addison St",
        "online time": "9/25/2013 13:25:17",
        "trips": "1275"
    },
    {
        "capacity": "20",
        "city": "Chicago",
        "lat": "41.908537",
        "lon": "-87.648627",
        "name": "Halsted St & Blackhawk St (*)",
        "online time": "9/25/2013 13:55:21",
        "trips": "7181"
    },
    {
        "capacity": "19",
        "city": "Chicago",
        "lat": "41.933666",
        "lon": "-87.648959",
        "name": "Halsted St & Diversey Pkwy",
        "online time": "9/25/2013 15:35:07",
        "trips": "6128"
    },
    {
        "capacity": "15",
        "city": "Chicago",
        "lat": "41.907066",
        "lon": "-87.667252",
        "name": "Ashland Ave & Blackhawk St",
        "online time": "9/25/2013 16:37:22",
        "trips": "3609"
    },
    {
        "capacity": "19",
        "city": "Chicago",
        "lat": "41.940775",
        "lon": "-87.639192",
        "name": "Lake Shore Dr & Belmont Ave",
        "online time": "9/26/2013 10:16:21",
        "trips": "11336"
    },
    {
        "capacity": "15",
        "city": "Chicago",
        "lat": "41.831379",
        "lon": "-87.618034",
        "name": "Calumet Ave & 35th St",
        "online time": "9/26/2013 10:33:04",
        "trips": "914"
    },
    {
        "capacity": "15",
        "city": "Chicago",
        "lat": "41.809855",
        "lon": "-87.606755",
        "name": "Cottage Grove Ave & 47th St",
        "online time": "9/26/2013 11:04:50",
        "trips": "637"
    },
    {
        "capacity": "19",
        "city": "Chicago",
        "lat": "41.896544",
        "lon": "-87.630931",
        "name": "Clark St & Chicago Ave",
        "online time": "9/26/2013 15:53:11",
        "trips": "6191"
    },
    {
        "capacity": "15",
        "city": "Chicago",
        "lat": "41.857611",
        "lon": "-87.619407",
        "name": "Calumet Ave & 18th St",
        "online time": "9/26/2013 15:59:54",
        "trips": "5538"
    },
    {
        "capacity": "11",
        "city": "Chicago",
        "lat": "41.838198",
        "lon": "-87.645143",
        "name": "Emerald Ave & 31st St",
        "online time": "9/27/2013 12:26:08",
        "trips": "1622"
    },
    {
        "capacity": "15",
        "city": "Chicago",
        "lat": "41.929546",
        "lon": "-87.643118",
        "name": "Clark St & Wrightwood Ave",
        "online time": "10/1/2013 11:35:48",
        "trips": "9093"
    },
    {
        "capacity": "35",
        "city": "Chicago",
        "lat": "41.866095",
        "lon": "-87.607267",
        "name": "Adler Planetarium",
        "online time": "10/3/2013 12:01:36",
        "trips": "14555"
    },
    {
        "capacity": "15",
        "city": "Chicago",
        "lat": "41.871262",
        "lon": "-87.673688",
        "name": "Wolcott Ave & Polk St",
        "online time": "10/3/2013 15:04:54",
        "trips": "4519"
    },
    {
        "capacity": "15",
        "city": "Chicago",
        "lat": "41.928887",
        "lon": "-87.658971",
        "name": "Racine Ave & Wrightwood Ave",
        "online time": "10/3/2013 15:54:25",
        "trips": "3064"
    },
    {
        "capacity": "39",
        "city": "Chicago",
        "lat": "41.96909",
        "lon": "-87.674237",
        "name": "Ravenswood Ave & Lawrence Ave",
        "online time": "10/3/2013 16:21:06",
        "trips": "7377"
    },
    {
        "capacity": "19",
        "city": "Chicago",
        "lat": "41.793242",
        "lon": "-87.587782",
        "name": "Lake Park Ave & 56th St",
        "online time": "10/4/2013 11:37:12",
        "trips": "2575"
    },
    {
        "capacity": "15",
        "city": "Chicago",
        "lat": "41.88283",
        "lon": "-87.661206",
        "name": "Ada St & Washington Blvd",
        "online time": "10/4/2013 14:37:09",
        "trips": "4809"
    },
    {
        "capacity": "15",
        "city": "Chicago",
        "lat": "41.950687",
        "lon": "-87.6687",
        "name": "Ashland Ave & Grace St",
        "online time": "10/4/2013 16:06:46",
        "trips": "2630"
    },
    {
        "capacity": "15",
        "city": "Chicago",
        "lat": "41.854016",
        "lon": "-87.695445",
        "name": "California Ave & 21st St",
        "online time": "10/9/2013 16:13:07",
        "trips": "439"
    },
    {
        "capacity": "15",
        "city": "Chicago",
        "lat": "41.929143",
        "lon": "-87.649077",
        "name": "Halsted St & Wrightwood Ave",
        "online time": "10/10/2013 12:40:57",
        "trips": "6158"
    },
    {
        "capacity": "15",
        "city": "Chicago",
        "lat": "41.895966",
        "lon": "-87.667747",
        "name": "Ashland Ave & Chicago Ave",
        "online time": "10/10/2013 14:22:58",
        "trips": "4390"
    },
    {
        "capacity": "15",
        "city": "Chicago",
        "lat": "41.803038",
        "lon": "-87.606615",
        "name": "Cottage Grove Ave & 51st St",
        "online time": "10/10/2013 16:56:42",
        "trips": "326"
    },
    {
        "capacity": "15",
        "city": "Chicago",
        "lat": "41.77351755125",
        "lon": "-87.5771428255",
        "name": "Jeffery Blvd & 67th St",
        "online time": "10/28/2013 13:24:15",
        "trips": "260"
    },
    {
        "capacity": "15",
        "city": "Chicago",
        "lat": "42.01256011541",
        "lon": "-87.6743671152",
        "name": "Clark St & Touhy Ave",
        "online time": "12/31/2013 14:08:54",
        "trips": "251"
    },
    {
        "capacity": "15",
        "city": "Chicago",
        "lat": "42.01058656284",
        "lon": "-87.6624120948",
        "name": "Sheridan Rd & Greenleaf Ave",
        "online time": "12/31/2013 14:09:18",
        "trips": "1379"
    },
    {
        "capacity": "19",
        "city": "Chicago",
        "lat": "41.773643",
        "lon": "-87.567514",
        "name": "South Shore Dr & 67th St",
        "online time": "1/9/2014 15:11:10",
        "trips": "288"
    },
    {
        "capacity": "11",
        "city": "Chicago",
        "lat": "41.7664929373",
        "lon": "-87.5864608775",
        "name": "Stony Island Ave & 71st St",
        "online time": "3/12/2014 12:27:53",
        "trips": "127"
    },
    {
        "capacity": "23",
        "city": "Chicago",
        "lat": "41.90348607004",
        "lon": "-87.6433534936",
        "name": "Larrabee St & Division St",
        "online time": "4/22/2014 15:54:08",
        "trips": "5659"
    },
    {
        "capacity": "19",
        "city": "Chicago",
        "lat": "41.90021949323",
        "lon": "-87.6429854676",
        "name": "Larrabee St & Oak St",
        "online time": "1/30/2015 12:38:37",
        "trips": "4626"
    },
    {
        "capacity": "15",
        "city": "Chicago",
        "lat": "41.89936843921",
        "lon": "-87.6484798752",
        "name": "Halsted St & North Branch St",
        "online time": "1/30/2015 12:40:21",
        "trips": "1588"
    },
    {
        "capacity": "15",
        "city": "Chicago",
        "lat": "41.84163253965",
        "lon": "-87.6574349533",
        "name": "Loomis St & Archer Ave",
        "online time": "1/30/2015 12:43:34",
        "trips": "626"
    },
    {
        "capacity": "15",
        "city": "Chicago",
        "lat": "41.83069611252",
        "lon": "-87.6559759116",
        "name": "Racine Ave & 35th St",
        "online time": "1/30/2015 12:47:53",
        "trips": "505"
    },
    {
        "capacity": "15",
        "city": "Chicago",
        "lat": "41.83920868403",
        "lon": "-87.6656098589",
        "name": "Ashland Ave & Archer Ave",
        "online time": "1/30/2015 12:51:19",
        "trips": "235"
    },
    {
        "capacity": "11",
        "city": "Chicago",
        "lat": "41.83010465416",
        "lon": "-87.6702983089",
        "name": "Wood St & 35th St",
        "online time": "1/30/2015 12:53:32",
        "trips": "198"
    },
    {
        "capacity": "15",
        "city": "Chicago",
        "lat": "41.85418424947",
        "lon": "-87.6191537415",
        "name": "Calumet Ave & 21st St",
        "online time": "1/30/2015 13:02:13",
        "trips": "2269"
    },
    {
        "capacity": "15",
        "city": "Chicago",
        "lat": "41.89546530305",
        "lon": "-87.7061278837",
        "name": "Kedzie Ave & Chicago Ave",
        "online time": "1/30/2015 13:57:50",
        "trips": "376"
    },
    {
        "capacity": "15",
        "city": "Chicago",
        "lat": "41.89841768945",
        "lon": "-87.6865960164",
        "name": "Western Ave & Walton St",
        "online time": "1/30/2015 13:58:17",
        "trips": "3142"
    },
    {
        "capacity": "11",
        "city": "Chicago",
        "lat": "41.889727",
        "lon": "-87.70103",
        "name": "Sacramento Blvd & Franklin Blvd",
        "online time": "1/30/2015 13:58:48",
        "trips": "167"
    },
    {
        "capacity": "35",
        "city": "Chicago",
        "lat": "41.88949181977",
        "lon": "-87.6882193648",
        "name": "Artesian Ave & Hubbard St",
        "online time": "1/30/2015 13:59:17",
        "trips": "2758"
    },
    {
        "capacity": "19",
        "city": "Chicago",
        "lat": "41.88460328501",
        "lon": "-87.7063037436",
        "name": "Kedzie Ave & Lake St",
        "online time": "1/30/2015 13:59:42",
        "trips": "584"
    },
    {
        "capacity": "15",
        "city": "Chicago",
        "lat": "41.88445395657",
        "lon": "-87.6962981368",
        "name": "California Ave & Lake St",
        "online time": "1/30/2015 14:00:13",
        "trips": "387"
    },
    {
        "capacity": "15",
        "city": "Chicago",
        "lat": "41.8797877089",
        "lon": "-87.686112808",
        "name": "Western Ave & Monroe St",
        "online time": "1/30/2015 14:22:27",
        "trips": "633"
    },
    {
        "capacity": "19",
        "city": "Chicago",
        "lat": "41.87474885079",
        "lon": "-87.6864452757",
        "name": "Western Ave & Congress Pkwy",
        "online time": "1/30/2015 14:25:12",
        "trips": "795"
    },
    {
        "capacity": "23",
        "city": "Chicago",
        "lat": "41.87429061424",
        "lon": "-87.6672456361",
        "name": "Ashland Ave & Harrison St",
        "online time": "1/30/2015 14:28:10",
        "trips": "2304"
    },
    {
        "capacity": "11",
        "city": "Chicago",
        "lat": "41.80183164049",
        "lon": "-87.645213904",
        "name": "Halsted St & 51st St",
        "online time": "1/30/2015 14:37:17",
        "trips": "8"
    },
    {
        "capacity": "11",
        "city": "Chicago",
        "lat": "41.794982",
        "lon": "-87.633124",
        "name": "Princeton Ave & Garfield Blvd",
        "online time": "1/30/2015 14:37:50",
        "trips": "133"
    },
    {
        "capacity": "11",
        "city": "Chicago",
        "lat": "41.79292964599",
        "lon": "-87.6449900565",
        "name": "Halsted St & 56th St",
        "online time": "1/30/2015 14:38:26",
        "trips": "20"
    },
    {
        "capacity": "15",
        "city": "Chicago",
        "lat": "41.77938114228",
        "lon": "-87.6446208145",
        "name": "Halsted St & 63rd St",
        "online time": "1/30/2015 14:41:26",
        "trips": "80"
    },
    {
        "capacity": "11",
        "city": "Chicago",
        "lat": "41.78007963264",
        "lon": "-87.6297463052",
        "name": "Wentworth Ave & 63rd St",
        "online time": "1/30/2015 14:42:00",
        "trips": "51"
    },
    {
        "capacity": "11",
        "city": "Chicago",
        "lat": "41.76906172032",
        "lon": "-87.6446135779",
        "name": "Halsted St & 69th St",
        "online time": "1/30/2015 14:42:38",
        "trips": "22"
    },
    {
        "capacity": "11",
        "city": "Chicago",
        "lat": "41.76929308995",
        "lon": "-87.6281959291",
        "name": "Perry Ave & 69th St",
        "online time": "1/30/2015 14:43:04",
        "trips": "5"
    },
    {
        "capacity": "11",
        "city": "Chicago",
        "lat": "41.76550800581",
        "lon": "-87.616917925",
        "name": "Calumet Ave & 71st St",
        "online time": "1/30/2015 14:45:10",
        "trips": "7"
    },
    {
        "capacity": "15",
        "city": "Chicago",
        "lat": "41.870816",
        "lon": "-87.631246",
        "name": "Clark St & 9th St (AMLI)",
        "online time": "1/30/2015 15:11:29",
        "trips": "2801"
    },
    {
        "capacity": "15",
        "city": "Chicago",
        "lat": "41.75712006802",
        "lon": "-87.5758393587",
        "name": "Jeffery Blvd & 76th St",
        "online time": "1/30/2015 17:30:10",
        "trips": "45"
    },
    {
        "capacity": "11",
        "city": "Chicago",
        "lat": "41.758768",
        "lon": "-87.56644",
        "name": "Yates Blvd & 75th St",
        "online time": "1/30/2015 17:30:39",
        "trips": "26"
    },
    {
        "capacity": "11",
        "city": "Chicago",
        "lat": "41.75874583706",
        "lon": "-87.5601147813",
        "name": "Saginaw Ave & Exchange Ave",
        "online time": "1/30/2015 17:31:10",
        "trips": "146"
    },
    {
        "capacity": "19",
        "city": "Chicago",
        "lat": "41.75787144829",
        "lon": "-87.54938625",
        "name": "Rainbow Beach",
        "online time": "1/30/2015 17:31:31",
        "trips": "76"
    },
    {
        "capacity": "11",
        "city": "Chicago",
        "lat": "41.76218896038",
        "lon": "-87.55927465",
        "name": "South Shore Dr & 74th St",
        "online time": "1/30/2015 17:31:52",
        "trips": "222"
    },
    {
        "capacity": "11",
        "city": "Chicago",
        "lat": "41.76571903697",
        "lon": "-87.604959713",
        "name": "Cottage Grove Ave & 71st St",
        "online time": "1/30/2015 17:32:08",
        "trips": "46"
    },
    {
        "capacity": "11",
        "city": "Chicago",
        "lat": "41.842733",
        "lon": "-87.635491",
        "name": "Shields Ave & 28th Pl",
        "online time": "1/30/2015 17:37:00",
        "trips": "488"
    },
    {
        "capacity": "15",
        "city": "Chicago",
        "lat": "41.838464",
        "lon": "-87.635406",
        "name": "Shields Ave & 31st St",
        "online time": "1/30/2015 17:37:23",
        "trips": "945"
    },
    {
        "capacity": "15",
        "city": "Chicago",
        "lat": "41.83452988563",
        "lon": "-87.6318229814",
        "name": "Wentworth Ave & 33rd St",
        "online time": "1/30/2015 17:37:37",
        "trips": "633"
    },
    {
        "capacity": "15",
        "city": "Chicago",
        "lat": "41.830777",
        "lon": "-87.632504",
        "name": "Wentworth Ave & 35th St",
        "online time": "1/30/2015 17:38:21",
        "trips": "970"
    },
    {
        "capacity": "19",
        "city": "Chicago",
        "lat": "41.83127423549",
        "lon": "-87.6087991946",
        "name": "Lake Park Ave & 35th St",
        "online time": "1/30/2015 17:38:37",
        "trips": "1767"
    },
    {
        "capacity": "11",
        "city": "Chicago",
        "lat": "41.82301523798",
        "lon": "-87.6265680185",
        "name": "State St & Pershing Rd",
        "online time": "1/30/2015 17:38:56",
        "trips": "50"
    },
    {
        "capacity": "11",
        "city": "Chicago",
        "lat": "41.819102",
        "lon": "-87.643278",
        "name": "Union Ave & Root St",
        "online time": "1/30/2015 17:39:16",
        "trips": "50"
    },
    {
        "capacity": "11",
        "city": "Chicago",
        "lat": "41.81620767856",
        "lon": "-87.6348193497",
        "name": "Shields Ave & 43rd St",
        "online time": "1/30/2015 17:39:31",
        "trips": "19"
    },
    {
        "capacity": "19",
        "city": "Chicago",
        "lat": "41.81665889302",
        "lon": "-87.6194124619",
        "name": "Prairie Ave & 43rd St",
        "online time": "1/30/2015 17:39:49",
        "trips": "251"
    },
    {
        "capacity": "11",
        "city": "Chicago",
        "lat": "41.80813391481",
        "lon": "-87.6456165545",
        "name": "Halsted St & 47th Pl",
        "online time": "1/30/2015 17:40:06",
        "trips": "117"
    },
    {
        "capacity": "11",
        "city": "Chicago",
        "lat": "41.80931770924",
        "lon": "-87.633449288",
        "name": "Princeton Ave & 47th St",
        "online time": "1/30/2015 17:40:22",
        "trips": "81"
    },
    {
        "capacity": "15",
        "city": "Chicago",
        "lat": "41.81409271048",
        "lon": "-87.5970051479",
        "name": "Woodlawn Ave & Lake Park Ave",
        "online time": "1/30/2015 17:40:36",
        "trips": "737"
    },
    {
        "capacity": "15",
        "city": "Chicago",
        "lat": "41.870257",
        "lon": "-87.639474",
        "name": "Canal St & Taylor St",
        "online time": "1/30/2015 17:40:54",
        "trips": "3769"
    },
    {
        "capacity": "15",
        "city": "Chicago",
        "lat": "41.80229465088",
        "lon": "-87.6180535802",
        "name": "Calumet Ave & 51st St",
        "online time": "1/30/2015 17:41:54",
        "trips": "154"
    },
    {
        "capacity": "15",
        "city": "Chicago",
        "lat": "41.805772",
        "lon": "-87.592464",
        "name": "Dorchester Ave & 49th St",
        "online time": "1/30/2015 17:42:09",
        "trips": "385"
    },
    {
        "capacity": "19",
        "city": "Chicago",
        "lat": "41.802406",
        "lon": "-87.586924",
        "name": "Cornell Ave & Hyde Park Blvd",
        "online time": "1/30/2015 17:42:21",
        "trips": "2992"
    },
    {
        "capacity": "11",
        "city": "Chicago",
        "lat": "41.79933626261",
        "lon": "-87.6009581145",
        "name": "Ellis Ave & 53rd St",
        "online time": "1/30/2015 17:42:34",
        "trips": "1491"
    },
    {
        "capacity": "15",
        "city": "Chicago",
        "lat": "41.79949429373",
        "lon": "-87.5864498959",
        "name": "Lake Park Ave & 53rd St",
        "online time": "1/30/2015 17:42:51",
        "trips": "2459"
    },
    {
        "capacity": "19",
        "city": "Chicago",
        "lat": "41.79430062054",
        "lon": "-87.6014497734",
        "name": "Ellis Ave & 55th St",
        "online time": "1/30/2015 17:43:06",
        "trips": "2609"
    },
    {
        "capacity": "16",
        "city": "Chicago",
        "lat": "41.79342945658",
        "lon": "-87.6158532619",
        "name": "MLK Jr Dr & 56th St (*)",
        "online time": "1/30/2015 17:43:39",
        "trips": "130"
    },
    {
        "capacity": "15",
        "city": "Chicago",
        "lat": "41.79156801058",
        "lon": "-87.6078521774",
        "name": "DuSable Museum",
        "online time": "1/30/2015 17:43:59",
        "trips": "492"
    },
    {
        "capacity": "27",
        "city": "Chicago",
        "lat": "41.791478",
        "lon": "-87.599861",
        "name": "University Ave & 57th St",
        "online time": "1/30/2015 17:44:17",
        "trips": "5105"
    },
    {
        "capacity": "27",
        "city": "Chicago",
        "lat": "41.79172820953",
        "lon": "-87.583945009",
        "name": "Museum of Science and Industry",
        "online time": "1/30/2015 17:44:30",
        "trips": "2531"
    },
    {
        "capacity": "15",
        "city": "Chicago",
        "lat": "41.78794281287",
        "lon": "-87.5883151702",
        "name": "Harper Ave & 59th St",
        "online time": "1/30/2015 17:44:55",
        "trips": "1069"
    },
    {
        "capacity": "19",
        "city": "Chicago",
        "lat": "41.78509714636",
        "lon": "-87.6010727606",
        "name": "Ellis Ave & 60th St",
        "online time": "1/30/2015 17:45:11",
        "trips": "2871"
    },
    {
        "capacity": "19",
        "city": "Chicago",
        "lat": "41.78059901484",
        "lon": "-87.606112388",
        "name": "Cottage Grove Ave & 63rd St",
        "online time": "1/30/2015 17:45:29",
        "trips": "274"
    },
    {
        "capacity": "15",
        "city": "Chicago",
        "lat": "41.7804056457",
        "lon": "-87.5914159893",
        "name": "Dorchester Ave & 63rd St",
        "online time": "1/30/2015 17:45:54",
        "trips": "282"
    },
    {
        "capacity": "11",
        "city": "Chicago",
        "lat": "41.77372095205",
        "lon": "-87.60563486",
        "name": "Cottage Grove Ave & 67th St",
        "online time": "1/30/2015 17:46:08",
        "trips": "91"
    },
    {
        "capacity": "15",
        "city": "Chicago",
        "lat": "41.78008063659",
        "lon": "-87.6159428567",
        "name": "MLK Jr Dr & 63rd St",
        "online time": "1/30/2015 17:46:22",
        "trips": "31"
    },
    {
        "capacity": "11",
        "city": "Chicago",
        "lat": "41.78414169317",
        "lon": "-87.6133078304",
        "name": "Eberhart Ave & 61st St",
        "online time": "1/30/2015 17:46:36",
        "trips": "60"
    },
    {
        "capacity": "19",
        "city": "Chicago",
        "lat": "42.009074",
        "lon": "-87.67419",
        "name": "Clark St & Lunt Ave",
        "online time": "2/2/2015 11:32:22",
        "trips": "1574"
    },
    {
        "capacity": "11",
        "city": "Chicago",
        "lat": "41.87359967462",
        "lon": "-87.7048707493",
        "name": "Kedzie Ave & Harrison St",
        "online time": "2/10/2015 11:47:26",
        "trips": "109"
    },
    {
        "capacity": "19",
        "city": "Chicago",
        "lat": "41.86650148316",
        "lon": "-87.68469707",
        "name": "Ogden Ave & Roosevelt Rd",
        "online time": "2/10/2015 11:47:44",
        "trips": "1380"
    },
    {
        "capacity": "15",
        "city": "Chicago",
        "lat": "41.86649278172",
        "lon": "-87.7064961757",
        "name": "Kedzie Ave & Roosevelt Rd",
        "online time": "2/10/2015 11:48:03",
        "trips": "222"
    },
    {
        "capacity": "15",
        "city": "Chicago",
        "lat": "41.866624",
        "lon": "-87.694521",
        "name": "Fairfield Ave & Roosevelt Rd",
        "online time": "2/10/2015 11:48:31",
        "trips": "312"
    },
    {
        "capacity": "20",
        "city": "Chicago",
        "lat": "41.86148",
        "lon": "-87.693374",
        "name": "Washtenaw Ave & 15th St (*)",
        "online time": "2/10/2015 11:48:45",
        "trips": "320"
    },
    {
        "capacity": "15",
        "city": "Chicago",
        "lat": "41.85420431327",
        "lon": "-87.7154058381",
        "name": "Central Park Ave & Ogden Ave",
        "online time": "2/10/2015 11:49:09",
        "trips": "96"
    },
    {
        "capacity": "11",
        "city": "Chicago",
        "lat": "41.85353363213",
        "lon": "-87.7050730318",
        "name": "Kedzie Ave & 21st St",
        "online time": "2/10/2015 11:49:29",
        "trips": "116"
    },
    {
        "capacity": "11",
        "city": "Chicago",
        "lat": "41.8498819465",
        "lon": "-87.7170003853",
        "name": "Lawndale Ave & 23rd St",
        "online time": "2/10/2015 11:49:54",
        "trips": "22"
    },
    {
        "capacity": "11",
        "city": "Chicago",
        "lat": "41.84819094491",
        "lon": "-87.7054137458",
        "name": "Kedzie Ave & 24th St",
        "online time": "2/10/2015 11:50:08",
        "trips": "35"
    },
    {
        "capacity": "15",
        "city": "Chicago",
        "lat": "41.84910969176",
        "lon": "-87.6951398068",
        "name": "California Ave & 23rd Pl",
        "online time": "2/10/2015 11:50:23",
        "trips": "274"
    },
    {
        "capacity": "11",
        "city": "Chicago",
        "lat": "41.84456684891",
        "lon": "-87.7159103081",
        "name": "Millard Ave & 26th St",
        "online time": "2/10/2015 11:50:36",
        "trips": "138"
    },
    {
        "capacity": "11",
        "city": "Chicago",
        "lat": "41.84447501366",
        "lon": "-87.7020130128",
        "name": "Albany Ave & 26th St",
        "online time": "2/10/2015 11:50:50",
        "trips": "98"
    },
    {
        "capacity": "11",
        "city": "Chicago",
        "lat": "41.84404003127",
        "lon": "-87.6952959227",
        "name": "California Ave & 26th St",
        "online time": "2/10/2015 11:51:07",
        "trips": "165"
    },
    {
        "capacity": "11",
        "city": "Chicago",
        "lat": "41.84151770807",
        "lon": "-87.6851314409",
        "name": "Western Ave & 28th St",
        "online time": "2/10/2015 11:51:32",
        "trips": "72"
    },
    {
        "capacity": "15",
        "city": "Chicago",
        "lat": "42.00797192287",
        "lon": "-87.6655023944",
        "name": "Glenwood Ave & Morse Ave",
        "online time": "2/10/2015 12:00:33",
        "trips": "2015"
    },
    {
        "capacity": "15",
        "city": "Chicago",
        "lat": "42.00454962194",
        "lon": "-87.6806661451",
        "name": "Warren Park East",
        "online time": "2/10/2015 14:02:35",
        "trips": "374"
    },
    {
        "capacity": "15",
        "city": "Chicago",
        "lat": "42.00445062934",
        "lon": "-87.6724024047",
        "name": "Clark St & Columbia Ave",
        "online time": "2/10/2015 14:02:48",
        "trips": "988"
    },
    {
        "capacity": "15",
        "city": "Chicago",
        "lat": "42.0020072639",
        "lon": "-87.6897262325",
        "name": "Warren Park West",
        "online time": "2/10/2015 14:03:05",
        "trips": "412"
    },
    {
        "capacity": "15",
        "city": "Chicago",
        "lat": "42.00104377979",
        "lon": "-87.6611982433",
        "name": "Sheridan Rd & Loyola Ave",
        "online time": "2/10/2015 14:03:20",
        "trips": "2238"
    },
    {
        "capacity": "15",
        "city": "Chicago",
        "lat": "41.99416136902",
        "lon": "-87.689438282",
        "name": "Western Ave & Granville Ave",
        "online time": "2/10/2015 14:03:37",
        "trips": "445"
    },
    {
        "capacity": "15",
        "city": "Chicago",
        "lat": "41.99925182186",
        "lon": "-87.6713773393",
        "name": "Clark St & Schreiber Ave",
        "online time": "2/10/2015 14:03:52",
        "trips": "908"
    },
    {
        "capacity": "15",
        "city": "Chicago",
        "lat": "41.9947796884",
        "lon": "-87.6602845349",
        "name": "Broadway & Granville Ave",
        "online time": "2/10/2015 14:04:12",
        "trips": "2590"
    },
    {
        "capacity": "15",
        "city": "Chicago",
        "lat": "41.99023602867",
        "lon": "-87.6933696402",
        "name": "Maplewood Ave & Peterson Ave",
        "online time": "2/10/2015 14:04:28",
        "trips": "353"
    },
    {
        "capacity": "15",
        "city": "Chicago",
        "lat": "41.991178",
        "lon": "-87.683593",
        "name": "2112 W Peterson Ave",
        "online time": "2/10/2015 14:04:42",
        "trips": "368"
    },
    {
        "capacity": "19",
        "city": "Chicago",
        "lat": "41.99089374974",
        "lon": "-87.6695833982",
        "name": "Clark St & Elmdale Ave",
        "online time": "2/10/2015 14:04:55",
        "trips": "1344"
    },
    {
        "capacity": "19",
        "city": "Chicago",
        "lat": "41.98974251144",
        "lon": "-87.6601406209",
        "name": "Broadway & Thorndale Ave",
        "online time": "2/10/2015 14:05:11",
        "trips": "2361"
    },
    {
        "capacity": "19",
        "city": "Chicago",
        "lat": "41.98403669612",
        "lon": "-87.6523104689",
        "name": "Lakefront Trail & Bryn Mawr Ave",
        "online time": "2/10/2015 14:05:23",
        "trips": "8135"
    },
    {
        "capacity": "15",
        "city": "Chicago",
        "lat": "41.983593",
        "lon": "-87.669154",
        "name": "Clark St & Bryn Mawr Ave",
        "online time": "2/10/2015 14:05:36",
        "trips": "2372"
    },
    {
        "capacity": "15",
        "city": "Chicago",
        "lat": "41.9840446107",
        "lon": "-87.6602738295",
        "name": "Broadway & Ridge Ave",
        "online time": "2/10/2015 14:05:50",
        "trips": "2380"
    },
    {
        "capacity": "15",
        "city": "Chicago",
        "lat": "41.97977021745",
        "lon": "-87.6758147283",
        "name": "Ravenswood Ave & Balmoral Ave",
        "online time": "2/10/2015 14:06:02",
        "trips": "1287"
    },
    {
        "capacity": "19",
        "city": "Chicago",
        "lat": "41.9779966544",
        "lon": "-87.6680471047",
        "name": "Clark St & Berwyn Ave",
        "online time": "2/10/2015 14:06:16",
        "trips": "4070"
    },
    {
        "capacity": "15",
        "city": "Chicago",
        "lat": "41.97561480459",
        "lon": "-87.6794590387",
        "name": "Damen Ave & Foster Ave",
        "online time": "2/10/2015 14:06:30",
        "trips": "2047"
    },
    {
        "capacity": "23",
        "city": "Chicago",
        "lat": "41.9716",
        "lon": "-87.650154",
        "name": "Marine Dr & Ainslie St",
        "online time": "2/10/2015 14:06:51",
        "trips": "3316"
    },
    {
        "capacity": "15",
        "city": "Chicago",
        "lat": "42.01213227742",
        "lon": "-87.6829126443",
        "name": "Ridge Blvd & Touhy Ave",
        "online time": "2/10/2015 14:11:37",
        "trips": "379"
    },
    {
        "capacity": "15",
        "city": "Chicago",
        "lat": "42.0085943972",
        "lon": "-87.6904922389",
        "name": "Western Ave & Lunt Ave",
        "online time": "2/10/2015 14:11:49",
        "trips": "419"
    },
    {
        "capacity": "15",
        "city": "Chicago",
        "lat": "41.98366470886",
        "lon": "-87.6964225611",
        "name": "Budlong Woods Library",
        "online time": "2/10/2015 14:12:00",
        "trips": "370"
    },
    {
        "capacity": "15",
        "city": "Chicago",
        "lat": "41.98039423475",
        "lon": "-87.7161149615",
        "name": "St. Louis Ave & Balmoral Ave",
        "online time": "2/10/2015 14:36:05",
        "trips": "591"
    },
    {
        "capacity": "15",
        "city": "Chicago",
        "lat": "41.975672",
        "lon": "-87.709261",
        "name": "Kedzie Ave & Foster Ave",
        "online time": "2/10/2015 14:36:19",
        "trips": "472"
    },
    {
        "capacity": "15",
        "city": "Chicago",
        "lat": "41.97563272521",
        "lon": "-87.7014194389",
        "name": "Francisco Ave & Foster Ave",
        "online time": "2/10/2015 14:36:33",
        "trips": "944"
    },
    {
        "capacity": "15",
        "city": "Chicago",
        "lat": "41.97491129677",
        "lon": "-87.6925025594",
        "name": "Lincoln Ave & Winona St",
        "online time": "2/10/2015 14:36:56",
        "trips": "753"
    },
    {
        "capacity": "15",
        "city": "Chicago",
        "lat": "41.96835449363",
        "lon": "-87.7118306675",
        "name": "Christiana Ave & Lawrence Ave",
        "online time": "2/10/2015 14:37:47",
        "trips": "831"
    },
    {
        "capacity": "15",
        "city": "Chicago",
        "lat": "41.96871106859",
        "lon": "-87.6961695698",
        "name": "Washtenaw Ave & Lawrence Ave",
        "online time": "2/10/2015 14:38:00",
        "trips": "887"
    },
    {
        "capacity": "15",
        "city": "Chicago",
        "lat": "41.96668636205",
        "lon": "-87.7080519806",
        "name": "Kedzie Ave & Leland Ave",
        "online time": "2/10/2015 14:38:13",
        "trips": "642"
    },
    {
        "capacity": "11",
        "city": "Chicago",
        "lat": "41.96631752876",
        "lon": "-87.7010826773",
        "name": "Manor Ave & Leland Ave",
        "online time": "2/10/2015 14:38:27",
        "trips": "647"
    },
    {
        "capacity": "15",
        "city": "Chicago",
        "lat": "41.96590013976",
        "lon": "-87.6936384935",
        "name": "Rockwell St & Eastwood Ave",
        "online time": "2/10/2015 14:38:39",
        "trips": "1634"
    },
    {
        "capacity": "11",
        "city": "Chicago",
        "lat": "41.96115407569",
        "lon": "-87.7165690733",
        "name": "Drake Ave & Montrose Ave",
        "online time": "2/10/2015 14:38:54",
        "trips": "843"
    },
    {
        "capacity": "15",
        "city": "Chicago",
        "lat": "41.961041",
        "lon": "-87.705866",
        "name": "Albany (Kedzie) Ave & Montrose Ave",
        "online time": "2/10/2015 14:39:09",
        "trips": "787"
    },
    {
        "capacity": "15",
        "city": "Chicago",
        "lat": "41.961068",
        "lon": "-87.695439",
        "name": "California Ave & Montrose Ave",
        "online time": "2/10/2015 14:39:21",
        "trips": "765"
    },
    {
        "capacity": "15",
        "city": "Chicago",
        "lat": "41.96152593287",
        "lon": "-87.6911650414",
        "name": "Campbell Ave & Montrose Ave",
        "online time": "2/10/2015 14:39:32",
        "trips": "1418"
    },
    {
        "capacity": "19",
        "city": "Chicago",
        "lat": "41.953393",
        "lon": "-87.732002",
        "name": "Avondale Ave & Irving Park Rd",
        "online time": "2/10/2015 14:39:46",
        "trips": "887"
    },
    {
        "capacity": "15",
        "city": "Chicago",
        "lat": "41.95400483876",
        "lon": "-87.7191281797",
        "name": "Monticello Ave & Irving Park Rd",
        "online time": "2/10/2015 14:39:59",
        "trips": "766"
    },
    {
        "capacity": "15",
        "city": "Chicago",
        "lat": "41.95358617895",
        "lon": "-87.7093107999",
        "name": "Sawyer Ave & Irving Park Rd",
        "online time": "2/10/2015 14:40:11",
        "trips": "603"
    },
    {
        "capacity": "15",
        "city": "Chicago",
        "lat": "41.95434085219",
        "lon": "-87.6860796243",
        "name": "Oakley Ave & Irving Park Rd",
        "online time": "2/10/2015 14:40:27",
        "trips": "1399"
    },
    {
        "capacity": "19",
        "city": "Chicago",
        "lat": "41.95216219326",
        "lon": "-87.698051113",
        "name": "California Ave & Byron St",
        "online time": "2/10/2015 14:40:41",
        "trips": "655"
    },
    {
        "capacity": "11",
        "city": "Chicago",
        "lat": "41.94563644092",
        "lon": "-87.7277368138",
        "name": "Pulaski Rd & Eddy St",
        "online time": "2/10/2015 14:40:53",
        "trips": "171"
    },
    {
        "capacity": "15",
        "city": "Chicago",
        "lat": "41.947326",
        "lon": "-87.717582",
        "name": "Drake Ave & Addison St",
        "online time": "2/10/2015 14:41:07",
        "trips": "727"
    },
    {
        "capacity": "15",
        "city": "Chicago",
        "lat": "41.94524356848",
        "lon": "-87.7066499009",
        "name": "Troy St & Elston Ave",
        "online time": "2/10/2015 14:41:22",
        "trips": "1276"
    },
    {
        "capacity": "15",
        "city": "Chicago",
        "lat": "41.9466358306",
        "lon": "-87.694614758",
        "name": "Talman Ave & Addison St",
        "online time": "2/10/2015 14:41:37",
        "trips": "1347"
    },
    {
        "capacity": "15",
        "city": "Chicago",
        "lat": "41.946655",
        "lon": "-87.683359",
        "name": "Leavitt St & Addison St",
        "online time": "2/10/2015 14:41:49",
        "trips": "1227"
    },
    {
        "capacity": "15",
        "city": "Chicago",
        "lat": "41.942916",
        "lon": "-87.685801",
        "name": "Oakley Ave & Roscoe St",
        "online time": "2/10/2015 14:42:02",
        "trips": "1826"
    },
    {
        "capacity": "15",
        "city": "Chicago",
        "lat": "41.98239708485",
        "lon": "-87.7089225202",
        "name": "Kedzie Ave & Bryn Mawr Ave",
        "online time": "2/10/2015 14:42:15",
        "trips": "269"
    },
    {
        "capacity": "15",
        "city": "Chicago",
        "lat": "41.96110801623",
        "lon": "-87.7289701012",
        "name": "Keystone Ave & Montrose Ave",
        "online time": "2/10/2015 14:42:31",
        "trips": "336"
    },
    {
        "capacity": "11",
        "city": "Chicago",
        "lat": "41.939364",
        "lon": "-87.722247",
        "name": "Avers Ave & Belmont Ave",
        "online time": "2/10/2015 14:47:18",
        "trips": "689"
    },
    {
        "capacity": "23",
        "city": "Chicago",
        "lat": "41.939398",
        "lon": "-87.711561",
        "name": "Kimball Ave & Belmont Ave",
        "online time": "2/10/2015 14:47:43",
        "trips": "1144"
    },
    {
        "capacity": "19",
        "city": "Chicago",
        "lat": "41.93842879148",
        "lon": "-87.698007756",
        "name": "California Ave & Fletcher St",
        "online time": "2/10/2015 14:47:54",
        "trips": "1019"
    },
    {
        "capacity": "15",
        "city": "Chicago",
        "lat": "41.93058537138",
        "lon": "-87.7237773635",
        "name": "Kosciuszko Park",
        "online time": "2/10/2015 14:48:08",
        "trips": "850"
    },
    {
        "capacity": "15",
        "city": "Chicago",
        "lat": "41.93533728263",
        "lon": "-87.7168892935",
        "name": "Central Park Ave & Elbridge Ave",
        "online time": "2/10/2015 14:48:20",
        "trips": "592"
    },
    {
        "capacity": "15",
        "city": "Chicago",
        "lat": "41.93190196886",
        "lon": "-87.7011951301",
        "name": "Richmond St & Diversey Ave",
        "online time": "2/10/2015 14:48:43",
        "trips": "1446"
    },
    {
        "capacity": "15",
        "city": "Chicago",
        "lat": "41.92669",
        "lon": "-87.697668",
        "name": "California Ave & Altgeld St",
        "online time": "2/10/2015 14:48:55",
        "trips": "1392"
    },
    {
        "capacity": "15",
        "city": "Chicago",
        "lat": "41.924398819",
        "lon": "-87.7154410355",
        "name": "Drake Ave & Fullerton Ave",
        "online time": "2/10/2015 14:49:10",
        "trips": "1369"
    },
    {
        "capacity": "15",
        "city": "Chicago",
        "lat": "41.92463247165",
        "lon": "-87.6893070063",
        "name": "Campbell Ave & Fullerton Ave",
        "online time": "2/10/2015 14:49:25",
        "trips": "1935"
    },
    {
        "capacity": "15",
        "city": "Chicago",
        "lat": "41.92409085038",
        "lon": "-87.6764600747",
        "name": "Winchester Ave & Elston Ave",
        "online time": "2/10/2015 14:49:40",
        "trips": "1186"
    },
    {
        "capacity": "15",
        "city": "Chicago",
        "lat": "41.91718375155",
        "lon": "-87.7103566522",
        "name": "Spaulding Ave & Armitage Ave",
        "online time": "2/10/2015 14:50:00",
        "trips": "2043"
    },
    {
        "capacity": "19",
        "city": "Chicago",
        "lat": "41.91751339399",
        "lon": "-87.7018089555",
        "name": "Humboldt Blvd & Armitage Ave",
        "online time": "2/10/2015 14:50:12",
        "trips": "3021"
    },
    {
        "capacity": "15",
        "city": "Chicago",
        "lat": "41.90965687563",
        "lon": "-87.7166319516",
        "name": "Central Park Ave & North Ave",
        "online time": "2/10/2015 14:50:26",
        "trips": "756"
    },
    {
        "capacity": "15",
        "city": "Chicago",
        "lat": "41.90976930169",
        "lon": "-87.7052804871",
        "name": "Troy St & North Ave",
        "online time": "2/10/2015 14:50:38",
        "trips": "1167"
    },
    {
        "capacity": "15",
        "city": "Chicago",
        "lat": "41.90270659438",
        "lon": "-87.709219571",
        "name": "Spaulding Ave & Division St",
        "online time": "2/10/2015 14:51:02",
        "trips": "572"
    },
    {
        "capacity": "15",
        "city": "Chicago",
        "lat": "41.91402671273",
        "lon": "-87.705126462",
        "name": "Albany Ave & Bloomingdale Ave",
        "online time": "2/10/2015 14:51:14",
        "trips": "3050"
    },
    {
        "capacity": "15",
        "city": "Chicago",
        "lat": "42.019276",
        "lon": "-87.68452",
        "name": "Ridge Blvd & Howard St",
        "online time": "5/12/2016 17:35:14",
        "trips": "255"
    },
    {
        "capacity": "23",
        "city": "Chicago",
        "lat": "42.019159",
        "lon": "-87.673573",
        "name": "Paulina St & Howard St",
        "online time": "5/12/2016 17:36:16",
        "trips": "1176"
    },
    {
        "capacity": "15",
        "city": "Chicago",
        "lat": "42.015963",
        "lon": "-87.675005",
        "name": "Clark St & Jarvis Ave",
        "online time": "5/12/2016 17:38:02",
        "trips": "588"
    },
    {
        "capacity": "15",
        "city": "Chicago",
        "lat": "41.885502",
        "lon": "-87.716866",
        "name": "Conservatory Dr & Lake St",
        "online time": "5/24/2016 15:32:31",
        "trips": "367"
    },
    {
        "capacity": "11",
        "city": "Chicago",
        "lat": "42.016977",
        "lon": "-87.677725",
        "name": "Wolcott Ave & Fargo Ave",
        "online time": "5/24/2016 15:40:32",
        "trips": "156"
    },
    {
        "capacity": "23",
        "city": "Chicago",
        "lat": "42.015962",
        "lon": "-87.66857",
        "name": "Greenview Ave & Jarvis Ave",
        "online time": "5/24/2016 15:41:28",
        "trips": "1387"
    },
    {
        "capacity": "15",
        "city": "Chicago",
        "lat": "42.019537",
        "lon": "-87.669563",
        "name": "Bosworth Ave & Howard St",
        "online time": "5/24/2016 15:43:13",
        "trips": "475"
    },
    {
        "capacity": "15",
        "city": "Chicago",
        "lat": "42.021019",
        "lon": "-87.665086",
        "name": "Eastlake Ter & Rogers Ave",
        "online time": "5/24/2016 15:44:23",
        "trips": "1432"
    },
    {
        "capacity": "11",
        "city": "Chicago",
        "lat": "41.894887",
        "lon": "-87.774704",
        "name": "Austin Blvd & Chicago Ave",
        "online time": "5/24/2016 15:45:52",
        "trips": "164"
    },
    {
        "capacity": "15",
        "city": "Chicago",
        "lat": "42.012701",
        "lon": "-87.666058",
        "name": "Glenwood Ave & Touhy Ave",
        "online time": "5/24/2016 15:47:11",
        "trips": "295"
    },
    {
        "capacity": "15",
        "city": "Chicago",
        "lat": "42.012342",
        "lon": "-87.688243",
        "name": "Oakley Ave & Touhy Ave",
        "online time": "5/24/2016 15:48:11",
        "trips": "195"
    },
    {
        "capacity": "19",
        "city": "Chicago",
        "lat": "42.018901",
        "lon": "-87.690048",
        "name": "Western Ave & Howard St",
        "online time": "5/24/2016 15:49:31",
        "trips": "260"
    },
    {
        "capacity": "15",
        "city": "Chicago",
        "lat": "41.885409",
        "lon": "-87.726491",
        "name": "Pulaski Rd & Lake St",
        "online time": "5/24/2016 15:50:53",
        "trips": "164"
    },
    {
        "capacity": "15",
        "city": "Chicago",
        "lat": "41.886841",
        "lon": "-87.745261",
        "name": "Cicero Ave & Lake St",
        "online time": "5/27/2016 08:35:11",
        "trips": "27"
    },
    {
        "capacity": "15",
        "city": "Chicago",
        "lat": "41.887832",
        "lon": "-87.755527",
        "name": "Laramie Ave & Kinzie St",
        "online time": "5/27/2016 08:37:00",
        "trips": "21"
    },
    {
        "capacity": "15",
        "city": "Chicago",
        "lat": "41.887664",
        "lon": "-87.765469",
        "name": "Central Ave & Lake St",
        "online time": "5/27/2016 08:38:16",
        "trips": "41"
    },
    {
        "capacity": "15",
        "city": "Chicago",
        "lat": "41.887919",
        "lon": "-87.774446",
        "name": "Austin Blvd & Lake St",
        "online time": "5/27/2016 08:38:49",
        "trips": "136"
    },
    {
        "capacity": "15",
        "city": "Chicago",
        "lat": "41.875679",
        "lon": "-87.71547",
        "name": "Central Park Blvd & 5th Ave",
        "online time": "5/27/2016 08:40:08",
        "trips": "64"
    },
    {
        "capacity": "15",
        "city": "Chicago",
        "lat": "41.880827",
        "lon": "-87.726279",
        "name": "Pulaski Rd & Madison St",
        "online time": "5/27/2016 08:41:19",
        "trips": "78"
    },
    {
        "capacity": "15",
        "city": "Chicago",
        "lat": "41.874325",
        "lon": "-87.725704",
        "name": "Pulaski Rd & Congress Pkwy",
        "online time": "5/27/2016 08:41:52",
        "trips": "56"
    },
    {
        "capacity": "15",
        "city": "Chicago",
        "lat": "41.885928",
        "lon": "-87.73541",
        "name": "Kostner Ave & Lake St",
        "online time": "5/27/2016 08:42:32",
        "trips": "36"
    },
    {
        "capacity": "15",
        "city": "Chicago",
        "lat": "41.880708",
        "lon": "-87.741018",
        "name": "Kenton Ave & Madison St",
        "online time": "5/27/2016 08:43:12",
        "trips": "13"
    },
    {
        "capacity": "15",
        "city": "Chicago",
        "lat": "41.872131",
        "lon": "-87.746619",
        "name": "Cicero Ave & Flournoy St",
        "online time": "5/27/2016 08:43:48",
        "trips": "9"
    },
    {
        "capacity": "15",
        "city": "Chicago",
        "lat": "41.877613",
        "lon": "-87.745405",
        "name": "Cicero Ave & Quincy St",
        "online time": "5/27/2016 08:44:28",
        "trips": "26"
    },
    {
        "capacity": "15",
        "city": "Chicago",
        "lat": "41.880207",
        "lon": "-87.755337",
        "name": "Laramie Ave & Madison St",
        "online time": "5/27/2016 08:46:44",
        "trips": "34"
    },
    {
        "capacity": "15",
        "city": "Chicago",
        "lat": "41.872993",
        "lon": "-87.764499",
        "name": "Central Ave & Harrison St",
        "online time": "5/27/2016 08:49:17",
        "trips": "78"
    },
    {
        "capacity": "15",
        "city": "Chicago",
        "lat": "41.880121",
        "lon": "-87.763238",
        "name": "Central Ave & Madison St",
        "online time": "5/27/2016 09:03:10",
        "trips": "88"
    },
    {
        "capacity": "15",
        "city": "Chicago",
        "lat": "41.875806",
        "lon": "-87.755285",
        "name": "Laramie Ave & Gladys Ave",
        "online time": "5/27/2016 09:04:28",
        "trips": "34"
    },
    {
        "capacity": "15",
        "city": "Chicago",
        "lat": "41.87998",
        "lon": "-87.773264",
        "name": "Mason Ave & Madison St",
        "online time": "5/27/2016 09:05:02",
        "trips": "60"
    },
    {
        "capacity": "15",
        "city": "Chicago",
        "lat": "41.877917",
        "lon": "-87.735737",
        "name": "Kostner Ave & Adams St",
        "online time": "5/27/2016 09:05:39",
        "trips": "17"
    },
    {
        "capacity": "11",
        "city": "Chicago",
        "lat": "41.823192",
        "lon": "-87.676597",
        "name": "Damen Ave & Pershing Rd",
        "online time": "5/27/2016 09:13:00",
        "trips": "110"
    },
    {
        "capacity": "11",
        "city": "Chicago",
        "lat": "41.823465",
        "lon": "-87.665577",
        "name": "Ashland Ave & Pershing Rd",
        "online time": "5/27/2016 09:24:35",
        "trips": "95"
    },
    {
        "capacity": "11",
        "city": "Chicago",
        "lat": "41.823613",
        "lon": "-87.650931",
        "name": "Morgan St & Pershing Rd",
        "online time": "5/27/2016 09:25:06",
        "trips": "10"
    },
    {
        "capacity": "11",
        "city": "Chicago",
        "lat": "41.813996",
        "lon": "-87.666589",
        "name": "Marshfield Ave & 44th St",
        "online time": "5/27/2016 09:25:31",
        "trips": "20"
    },
    {
        "capacity": "11",
        "city": "Chicago",
        "lat": "41.894958",
        "lon": "-87.764902",
        "name": "Central Ave & Chicago Ave",
        "online time": "5/27/2016 09:25:56",
        "trips": "47"
    },
    {
        "capacity": "11",
        "city": "Chicago",
        "lat": "41.808227",
        "lon": "-87.67718",
        "name": "Hoyne Ave & 47th St",
        "online time": "5/27/2016 09:29:16",
        "trips": "41"
    },
    {
        "capacity": "11",
        "city": "Chicago",
        "lat": "41.80887",
        "lon": "-87.66454",
        "name": "Ashland Ave & McDowell Ave",
        "online time": "5/27/2016 09:30:22",
        "trips": "147"
    },
    {
        "capacity": "11",
        "city": "Chicago",
        "lat": "41.80839",
        "lon": "-87.656526",
        "name": "Elizabeth St & 47th St",
        "online time": "5/27/2016 10:03:12",
        "trips": "38"
    },
    {
        "capacity": "11",
        "city": "Chicago",
        "lat": "41.800908",
        "lon": "-87.674684",
        "name": "Damen Ave & 51st St",
        "online time": "5/27/2016 10:15:12",
        "trips": "53"
    },
    {
        "capacity": "11",
        "city": "Chicago",
        "lat": "41.803023",
        "lon": "-87.664699",
        "name": "Ashland Ave & 50th St",
        "online time": "5/27/2016 10:16:03",
        "trips": "37"
    },
    {
        "capacity": "11",
        "city": "Chicago",
        "lat": "41.799659",
        "lon": "-87.657195",
        "name": "Throop St & 52nd St",
        "online time": "5/27/2016 10:48:18",
        "trips": "4"
    },
    {
        "capacity": "11",
        "city": "Chicago",
        "lat": "41.794087",
        "lon": "-87.675478",
        "name": "Seeley Ave & Garfield Blvd",
        "online time": "5/27/2016 10:48:53",
        "trips": "4"
    },
    {
        "capacity": "11",
        "city": "Chicago",
        "lat": "41.792822",
        "lon": "-87.664429",
        "name": "Ashland Ave & Garfield Blvd",
        "online time": "5/27/2016 10:49:17",
        "trips": "1"
    },
    {
        "capacity": "11",
        "city": "Chicago",
        "lat": "41.794694",
        "lon": "-87.654947",
        "name": "Racine Ave & Garfield Blvd",
        "online time": "5/27/2016 10:49:44",
        "trips": "7"
    },
    {
        "capacity": "11",
        "city": "Chicago",
        "lat": "41.786833",
        "lon": "-87.666215",
        "name": "Marshfield Ave & 59th St",
        "online time": "5/27/2016 10:50:20",
        "trips": "14"
    },
    {
        "capacity": "11",
        "city": "Chicago",
        "lat": "41.78602",
        "lon": "-87.674167",
        "name": "Damen Ave & 59th St",
        "online time": "5/27/2016 10:50:53",
        "trips": "22"
    },
    {
        "capacity": "11",
        "city": "Chicago",
        "lat": "41.783189",
        "lon": "-87.654372",
        "name": "Racine Ave & 61st St",
        "online time": "5/27/2016 10:51:16",
        "trips": "6"
    },
    {
        "capacity": "15",
        "city": "Chicago",
        "lat": "41.779374",
        "lon": "-87.664843",
        "name": "Ashland Ave & 63rd St",
        "online time": "5/27/2016 10:51:39",
        "trips": "18"
    },
    {
        "capacity": "11",
        "city": "Chicago",
        "lat": "41.775393",
        "lon": "-87.654308",
        "name": "Racine Ave & 65th St",
        "online time": "5/27/2016 10:52:09",
        "trips": "6"
    },
    {
        "capacity": "11",
        "city": "Chicago",
        "lat": "41.774074",
        "lon": "-87.663815",
        "name": "Ashland Ave & 66th St",
        "online time": "5/27/2016 10:52:35",
        "trips": "2"
    },
    {
        "capacity": "11",
        "city": "Chicago",
        "lat": "41.768726",
        "lon": "-87.664069",
        "name": "Ashland Ave & 69th St",
        "online time": "5/27/2016 10:53:08",
        "trips": "8"
    },
    {
        "capacity": "11",
        "city": "Chicago",
        "lat": "41.768938",
        "lon": "-87.652934",
        "name": "May St & 69th St",
        "online time": "5/27/2016 10:53:33",
        "trips": "3"
    },
    {
        "capacity": "11",
        "city": "Chicago",
        "lat": "41.763462",
        "lon": "-87.637297",
        "name": "Normal Ave & 72nd St",
        "online time": "5/27/2016 10:54:05",
        "trips": "10"
    },
    {
        "capacity": "15",
        "city": "Chicago",
        "lat": "41.75916",
        "lon": "-87.595751",
        "name": "Woodlawn Ave & 75th St",
        "online time": "5/27/2016 10:54:32",
        "trips": "12"
    },
    {
        "capacity": "11",
        "city": "Chicago",
        "lat": "41.758308",
        "lon": "-87.606685",
        "name": "Evans Ave & 75th St",
        "online time": "5/27/2016 10:55:05",
        "trips": "12"
    },
    {
        "capacity": "11",
        "city": "Chicago",
        "lat": "41.758361",
        "lon": "-87.614138",
        "name": "Vernon Ave & 75th St",
        "online time": "5/27/2016 10:55:30",
        "trips": "29"
    },
    {
        "capacity": "11",
        "city": "Chicago",
        "lat": "41.756971",
        "lon": "-87.624621",
        "name": "State St & 76th St",
        "online time": "5/27/2016 10:56:20",
        "trips": "3"
    },
    {
        "capacity": "15",
        "city": "Chicago",
        "lat": "41.750794",
        "lon": "-87.624424",
        "name": "State St & 79th St",
        "online time": "5/27/2016 10:56:54",
        "trips": "36"
    },
    {
        "capacity": "11",
        "city": "Chicago",
        "lat": "41.750951",
        "lon": "-87.613783",
        "name": "Vernon Ave & 79th St",
        "online time": "5/27/2016 10:57:20",
        "trips": "10"
    },
    {
        "capacity": "11",
        "city": "Chicago",
        "lat": "41.753174",
        "lon": "-87.605026",
        "name": "Cottage Grove Ave & 78th St",
        "online time": "5/27/2016 10:57:43",
        "trips": "37"
    },
    {
        "capacity": "15",
        "city": "Chicago",
        "lat": "41.751294",
        "lon": "-87.597552",
        "name": "Greenwood Ave & 79th St",
        "online time": "5/27/2016 11:29:41",
        "trips": "10"
    },
    {
        "capacity": "11",
        "city": "Chicago",
        "lat": "41.751173",
        "lon": "-87.585337",
        "name": "Stony Island Ave & South Chicago Ave",
        "online time": "5/27/2016 11:31:07",
        "trips": "24"
    },
    {
        "capacity": "11",
        "city": "Chicago",
        "lat": "41.75182",
        "lon": "-87.565211",
        "name": "Phillips Ave & 79th St",
        "online time": "5/27/2016 11:32:12",
        "trips": "4"
    },
    {
        "capacity": "15",
        "city": "Chicago",
        "lat": "41.751731",
        "lon": "-87.552812",
        "name": "Exchange Ave & 79th St",
        "online time": "5/27/2016 11:32:59",
        "trips": "13"
    },
    {
        "capacity": "15",
        "city": "Chicago",
        "lat": "41.744607",
        "lon": "-87.551201",
        "name": "Commercial Ave & 83rd St",
        "online time": "5/27/2016 11:33:35",
        "trips": "15"
    },
    {
        "capacity": "11",
        "city": "Chicago",
        "lat": "41.746334",
        "lon": "-87.564725",
        "name": "Phillips Ave & 82nd St",
        "online time": "5/27/2016 11:34:21",
        "trips": "5"
    },
    {
        "capacity": "11",
        "city": "Chicago",
        "lat": "41.746559",
        "lon": "-87.586005",
        "name": "Stony Island Ave & 82nd St",
        "online time": "5/27/2016 11:34:53",
        "trips": "29"
    },
    {
        "capacity": "15",
        "city": "Chicago",
        "lat": "41.744123",
        "lon": "-87.599034",
        "name": "Ellis Ave & 83rd St",
        "online time": "5/27/2016 11:35:20",
        "trips": "13"
    },
    {
        "capacity": "11",
        "city": "Chicago",
        "lat": "41.744053",
        "lon": "-87.604786",
        "name": "Cottage Grove Ave & 83rd St",
        "online time": "5/27/2016 11:36:16",
        "trips": "19"
    },
    {
        "capacity": "11",
        "city": "Chicago",
        "lat": "41.743116",
        "lon": "-87.6148",
        "name": "MLK Jr Dr & 83rd St",
        "online time": "5/27/2016 11:36:53",
        "trips": "29"
    },
    {
        "capacity": "11",
        "city": "Chicago",
        "lat": "41.743316",
        "lon": "-87.622849",
        "name": "Wabash Ave & 83rd St",
        "online time": "5/27/2016 11:37:24",
        "trips": "37"
    },
    {
        "capacity": "11",
        "city": "Chicago",
        "lat": "41.743921",
        "lon": "-87.575225",
        "name": "South Chicago Ave & 83rd St",
        "online time": "5/27/2016 11:38:02",
        "trips": "8"
    },
    {
        "capacity": "15",
        "city": "Chicago",
        "lat": "41.954468",
        "lon": "-87.749594",
        "name": "Milwaukee Ave & Cuyler Ave",
        "online time": "5/27/2016 11:39:23",
        "trips": "167"
    },
    {
        "capacity": "15",
        "city": "Chicago",
        "lat": "41.953733",
        "lon": "-87.740569",
        "name": "Kilbourn Ave & Irving Park Rd",
        "online time": "5/27/2016 11:39:45",
        "trips": "395"
    },
    {
        "capacity": "23",
        "city": "Chicago",
        "lat": "41.948818",
        "lon": "-87.74002",
        "name": "Kilbourn Ave & Milwaukee Ave",
        "online time": "5/27/2016 11:40:20",
        "trips": "303"
    },
    {
        "capacity": "15",
        "city": "Chicago",
        "lat": "41.960631",
        "lon": "-87.745359",
        "name": "Knox Ave & Montrose Ave",
        "online time": "5/27/2016 11:40:49",
        "trips": "252"
    },
    {
        "capacity": "11",
        "city": "Chicago",
        "lat": "41.787539",
        "lon": "-87.644874",
        "name": "Halsted St & 59th St",
        "online time": "5/27/2016 11:41:26",
        "trips": "2"
    },
    {
        "capacity": "15",
        "city": "Chicago",
        "lat": "41.805661",
        "lon": "-87.683392",
        "name": "Western Blvd & 48th Pl",
        "online time": "5/27/2016 11:42:34",
        "trips": "76"
    },
    {
        "capacity": "15",
        "city": "Chicago",
        "lat": "41.736646",
        "lon": "-87.622634",
        "name": "Wabash Ave & 87th St",
        "online time": "5/27/2016 11:42:56",
        "trips": "5"
    },
    {
        "capacity": "15",
        "city": "Evanston",
        "lat": "42.048214",
        "lon": "-87.683485",
        "name": "Benson Ave & Church St",
        "online time": "6/14/2016 11:00:57",
        "trips": "2927"
    },
    {
        "capacity": "15",
        "city": "Evanston",
        "lat": "42.032562",
        "lon": "-87.679101",
        "name": "Chicago Ave & Washington St",
        "online time": "6/14/2016 11:01:36",
        "trips": "1743"
    },
    {
        "capacity": "15",
        "city": "Evanston",
        "lat": "42.025784",
        "lon": "-87.684107",
        "name": "Elmwood Ave & Austin St",
        "online time": "6/14/2016 11:02:23",
        "trips": "339"
    },
    {
        "capacity": "15",
        "city": "Evanston",
        "lat": "42.039742",
        "lon": "-87.699413",
        "name": "Valli Produce - Evanston Plaza",
        "online time": "6/14/2016 11:03:05",
        "trips": "255"
    },
    {
        "capacity": "15",
        "city": "Evanston",
        "lat": "42.048308",
        "lon": "-87.698224",
        "name": "Dodge Ave & Church St",
        "online time": "6/14/2016 11:03:42",
        "trips": "466"
    },
    {
        "capacity": "15",
        "city": "Evanston",
        "lat": "42.063598",
        "lon": "-87.69873",
        "name": "Central St Metra",
        "online time": "6/14/2016 11:04:14",
        "trips": "596"
    },
    {
        "capacity": "15",
        "city": "Evanston",
        "lat": "42.063999",
        "lon": "-87.685962",
        "name": "Central St & Girard Ave",
        "online time": "6/14/2016 11:04:40",
        "trips": "631"
    },
    {
        "capacity": "15",
        "city": "Evanston",
        "lat": "42.050491",
        "lon": "-87.677821",
        "name": "Chicago Ave & Sheridan Rd",
        "online time": "6/14/2016 11:05:12",
        "trips": "1677"
    },
    {
        "capacity": "15",
        "city": "Evanston",
        "lat": "42.058239",
        "lon": "-87.677432",
        "name": "Sheridan Rd & Noyes St (NU)",
        "online time": "6/14/2016 11:05:42",
        "trips": "2022"
    },
    {
        "capacity": "15",
        "city": "Evanston",
        "lat": "42.052939",
        "lon": "-87.673447",
        "name": "University Library (NU)",
        "online time": "6/14/2016 11:06:21",
        "trips": "1767"
    },
    {
        "capacity": "19",
        "city": "Oak Park",
        "lat": "41.894355",
        "lon": "-87.80022",
        "name": "Forest Ave & Chicago Ave",
        "online time": "6/23/2016 12:21:48",
        "trips": "937"
    },
    {
        "capacity": "11",
        "city": "Oak Park",
        "lat": "41.898168",
        "lon": "-87.783055",
        "name": "Cuyler Ave & Augusta St",
        "online time": "6/23/2016 12:22:45",
        "trips": "493"
    },
    {
        "capacity": "11",
        "city": "Oak Park",
        "lat": "41.890249",
        "lon": "-87.778281",
        "name": "Humphrey Ave & Ontario St",
        "online time": "6/23/2016 12:23:22",
        "trips": "153"
    },
    {
        "capacity": "15",
        "city": "Oak Park",
        "lat": "41.88891",
        "lon": "-87.800255",
        "name": "Forest Ave & Lake St",
        "online time": "6/23/2016 12:23:59",
        "trips": "772"
    },
    {
        "capacity": "19",
        "city": "Oak Park",
        "lat": "41.88681",
        "lon": "-87.80287",
        "name": "Marion St & South Blvd",
        "online time": "6/23/2016 12:24:30",
        "trips": "1078"
    },
    {
        "capacity": "19",
        "city": "Oak Park",
        "lat": "41.886923",
        "lon": "-87.793899",
        "name": "Oak Park Ave & South Blvd",
        "online time": "6/23/2016 12:25:00",
        "trips": "631"
    },
    {
        "capacity": "15",
        "city": "Oak Park",
        "lat": "41.888085",
        "lon": "-87.785236",
        "name": "Ridgeland Ave & Lake St",
        "online time": "6/23/2016 12:25:30",
        "trips": "586"
    },
    {
        "capacity": "11",
        "city": "Oak Park",
        "lat": "41.879837",
        "lon": "-87.80224",
        "name": "Wisconsin Ave & Madison St",
        "online time": "6/23/2016 12:26:01",
        "trips": "640"
    },
    {
        "capacity": "15",
        "city": "Oak Park",
        "lat": "41.880113",
        "lon": "-87.789247",
        "name": "East Ave & Madison St",
        "online time": "6/23/2016 12:26:27",
        "trips": "316"
    },
    {
        "capacity": "15",
        "city": "Oak Park",
        "lat": "41.87981",
        "lon": "-87.779425",
        "name": "Lombard Ave & Madison St",
        "online time": "6/23/2016 12:27:02",
        "trips": "298"
    },
    {
        "capacity": "19",
        "city": "Oak Park",
        "lat": "41.872987",
        "lon": "-87.793945",
        "name": "Oak Park Ave & Harrison St",
        "online time": "6/23/2016 12:27:31",
        "trips": "458"
    },
    {
        "capacity": "19",
        "city": "Oak Park",
        "lat": "41.871312",
        "lon": "-87.788938",
        "name": "East Ave & Garfield St",
        "online time": "6/23/2016 12:27:57",
        "trips": "303"
    },
    {
        "capacity": "19",
        "city": "Oak Park",
        "lat": "41.870699",
        "lon": "-87.778797",
        "name": "Lombard Ave & Garfield St",
        "online time": "6/23/2016 12:28:34",
        "trips": "316"
    },
    {
        "capacity": "15",
        "city": "Chicago",
        "lat": "41.924361",
        "lon": "-87.727752",
        "name": "Keystone Ave & Fullerton Ave",
        "online time": "7/7/2016 16:46:01",
        "trips": "505"
    },
    {
        "capacity": "15",
        "city": "Chicago",
        "lat": "41.898203",
        "lon": "-87.637536",
        "name": "Orleans St & Chestnut St (NEXT Apts)",
        "online time": "7/7/2016 16:46:26",
        "trips": "2075"
    },
    {
        "capacity": "0",
        "city": "Chicago",
        "lat": "41.900363",
        "lon": "-87.696704",
        "name": "California Ave & Cortez St",
        "online time": "4/27/2017 09:17:08",
        "trips": "1197"
    },
    {
        "capacity": "23",
        "city": "Chicago",
        "lat": "41.872773",
        "lon": "-87.623981",
        "name": "Michigan Ave & 8th St",
        "online time": "6/13/2017 15:23:53",
        "trips": "1908"
    }
]